{
    "data": [
        {
            "name": "Crullers (Tall Solo - comprised of Big Mama Baby, Little Mama and Tall Solo)",
            "coordinates": {
                "longitude": -97.751659,
                "latitude": 30.267292
            },
            "address": {
                "street_address": "215 West Ave.",
                "city": "Austin",
                "region": "TX"
            },
            "artist": "Sharon  Engelstein",
            "material": "Pigmented Glass Fiber Reinforced Concrete Over Structural Foam And Steel Armature",
            "dates": {
                "installed": {
                    "date_string": "2016-01-01T00:00:00.000"
                }
            }
        },
        {
            "name": "Larry Monroe Forever Mosaic",
            "coordinates": {
                "longitude": -97.7444,
                "latitude": 30.247499
            },
            "address": {
                "street_address": "1506 East Side Drive",
                "city": "Austin",
                "region": "TX"
            },
            "artist": "Stefanie  Distefano",
            "material": "Clay, Mirror, Found Objects",
            "dates": {
                "installed": {
                    "date_string": "2015-01-01T00:00:00.000"
                }
            }
        },
        {
            "name": "Formation, language, memory",
            "coordinates": {
                "longitude": -97.738868,
                "latitude": 30.26572
            },
            "address": {
                "street_address": "411 E Fifth St",
                "city": "Austin",
                "region": "TX"
            },
            "artist": "Hawkeye  Glenn,  Lizzie  Martinez",
            "material": "Sunset Red Granite, Leuders Limestone, Steel Planters, Paint.",
            "dates": {
                "installed": {
                    "date_string": "2010-01-01T00:00:00.000"
                }
            }
        },
        {
            "name": "Solar Tree",
            "coordinates": {
                "longitude": -97.80197100000001,
                "latitude": 30.185260000000003
            },
            "address": {
                "street_address": "1009 W Dittmar Rd",
                "city": "Austin",
                "region": "TX"
            },
            "artist": "Barna  Kantor",
            "material": "Steel, Limestone, Polycarbonate, LED Lighting, Photovoltaic Elements, Solar Array",
            "dates": {
                "installed": {
                    "date_string": "2013-01-01T00:00:00.000"
                }
            }
        },
        {
            "name": "San Antonio River",
            "coordinates": {
                "longitude": -97.74136800000001,
                "latitude": 30.263583000000004
            },
            "address": {
                "street_address": "500 W 2nd St",
                "city": "Austin",
                "region": "TX"
            },
            "artist": "Leticia Huerta",
            "material": "Terrazzo Tile",
            "dates": {
                "installed": {
                    "date_string": "2017-01-01T00:00:00.000"
                }
            }
        },
        {
            "name": "\"And He Was Sad\"",
            "coordinates": {
                "longitude": -97.731772,
                "latitude": 30.29051
            },
            "address": {
                "street_address": "3001 Harris Park Ave",
                "city": "Austin",
                "region": "TX"
            },
            "artist": "Bob  Coffee",
            "material": "Bronze, On Stone Base (dims Are Sculpture Only)",
            "dates": {
                "installed": {
                    "date_string": "2007-01-01T00:00:00.000"
                }
            }
        },
        {
            "name": "Don Vito Alessio Robles",
            "coordinates": {
                "longitude": -97.727242,
                "latitude": 30.261929000000002
            },
            "address": {
                "street_address": "408 Comal St",
                "city": "Austin",
                "region": "TX"
            },
            "artist": "Unknown Artist",
            "material": "Cast Bronze, Metal, Tile",
            "dates": {
                "installed": {
                    "date_string": "2000-01-01T00:00:00.000"
                }
            }
        },
        {
            "name": "Open Room Austin",
            "coordinates": {
                "longitude": -97.75474200000001,
                "latitude": 30.26705
            },
            "address": {
                "street_address": "200 Sandra Muraida Way",
                "city": "Austin",
                "region": "TX"
            },
            "artist": "R+R Studios",
            "material": "Powder-coated Aluminum",
            "dates": {
                "installed": {
                    "date_string": "2010-01-01T00:00:00.000"
                }
            }
        },
        {
            "name": "Hill of the Medicine Man",
            "coordinates": {
                "longitude": -97.66621,
                "latitude": 30.20239
            },
            "address": {
                "street_address": "3600 Presidential Blvd",
                "city": "Austin",
                "region": "TX"
            },
            "artist": "Thomas  Evans",
            "material": "9 Oil On Canvas Panels",
            "dates": {
                "installed": {
                    "date_string": "1999-01-01T00:00:00.000"
                }
            }
        },
        {
            "name": "Q (not a quince)",
            "coordinates": {
                "longitude": -97.66992,
                "latitude": 30.211600000000004
            },
            "address": {
                "street_address": "2800 Spirit of Texas Dr",
                "city": "Austin",
                "region": "TX"
            },
            "artist": "Nell  Gould",
            "material": "A La Poupée Etching With Chine-collé",
            "dates": {
                "installed": {
                    "date_string": "1997-01-01T00:00:00.000"
                }
            }
        },
        {
            "name": "The Roots/ Las raices",
            "coordinates": {
                "longitude": -97.72213,
                "latitude": 30.262560000000004
            },
            "address": {
                "street_address": "E 7th and Chicon",
                "city": "Austin",
                "region": "TX"
            },
            "artist": "Aly  Winningham",
            "material": "Glass And Metal On Cement Board",
            "dates": {
                "installed": {
                    "date_string": "2011-01-01T00:00:00.000"
                }
            }
        },
        {
            "name": "Uprooted Dreams",
            "coordinates": {
                "longitude": -97.740004,
                "latitude": 30.258154
            },
            "address": {
                "street_address": "600 River St",
                "city": "Austin",
                "region": "TX"
            },
            "artist": "Margarita  Cabrera",
            "material": "Acrylic On Found Wood Pieces",
            "dates": {
                "installed": {
                    "date_string": "2012-01-01T00:00:00.000"
                }
            }
        },
        {
            "name": "A River Runs Thru Us",
            "coordinates": {
                "longitude": -97.724074,
                "latitude": 30.269540000000003
            },
            "address": {
                "street_address": "1161 Angelina St",
                "city": "Austin",
                "region": "TX"
            },
            "artist": "Freddie  McCoo",
            "material": "Acrylic On Panel",
            "dates": {
                "installed": {
                    "date_string": "2004-01-01T00:00:00.000"
                }
            }
        },
        {
            "name": "Italianos 1,2,3; Indian Land 1; Pueblo Trees; On the Way",
            "coordinates": {
                "longitude": -97.7429,
                "latitude": 30.263650000000002
            },
            "address": {
                "street_address": "201 E 2nd St",
                "city": "Austin",
                "region": "TX"
            },
            "artist": "Priscilla  Robinson",
            "material": "Six Pastel Drawings",
            "dates": {
                "installed": {
                    "date_string": "1990-01-01T00:00:00.000"
                }
            }
        },
        {
            "name": "Snake Culvert",
            "coordinates": {
                "longitude": -97.715215,
                "latitude": 30.269439000000002
            },
            "address": {
                "street_address": "1143 Northwestern Ave",
                "city": "Austin",
                "region": "TX"
            },
            "artist": "T. Paul  Hernandez",
            "material": "Cast Concrete",
            "dates": {
                "installed": {
                    "date_string": "1990-01-01T00:00:00.000"
                }
            }
        },
        {
            "name": "The Courtyard",
            "coordinates": {
                "longitude": -97.711117,
                "latitude": 30.265621000000003
            },
            "address": {
                "street_address": "808 Nile St",
                "city": "Austin",
                "region": "TX"
            },
            "artist": "Jorge  Pardo",
            "material": "Hand-painted Ceramic Tile Mural",
            "dates": {
                "installed": {
                    "date_string": "1988-01-01T00:00:00.000"
                }
            }
        },
        {
            "name": "Pedestrian Geometries #9",
            "coordinates": {
                "longitude": -97.744844,
                "latitude": 30.265597000000003
            },
            "address": {
                "street_address": "301 Brazos St",
                "city": "Austin",
                "region": "TX"
            },
            "artist": "Erin  Curtis",
            "material": "Elgin-Butler Glazed Brick, Mortar, Grout",
            "dates": {
                "installed": {
                    "date_string": "2013-01-01T00:00:00.000"
                }
            }
        },
        {
            "name": "ARFF! Tré Arenz Memorial",
            "coordinates": {
                "longitude": -97.750122,
                "latitude": 30.264662
            },
            "address": {
                "street_address": "621 W Cesar Chavez",
                "city": "Austin",
                "region": "TX"
            },
            "artist": "Emily  Little,  Shea  Little, Jana Swec, Steve Wiman",
            "material": "Ceramic Tiles, Rocks, Cement, Paint",
            "dates": {
                "installed": {
                    "date_string": "2006-01-01T00:00:00.000"
                }
            }
        },
        {
            "name": "CAW",
            "coordinates": {
                "longitude": -97.750235,
                "latitude": 30.265840000000004
            },
            "address": {
                "street_address": "710 W Cesar Chavez St.",
                "city": "Austin",
                "region": "TX"
            },
            "artist": "Christian  Moeller",
            "material": "Aluminum Honeycomb Composite Construction, Finished With A Sprayed Catalyzed Urethane Paint System",
            "dates": {
                "installed": {
                    "date_string": "2016-01-01T00:00:00.000"
                }
            }
        },
        {
            "name": "Letterscape",
            "coordinates": {
                "longitude": -97.6897,
                "latitude": 30.252586000000004
            },
            "address": {
                "street_address": "7201 Levander Loop",
                "city": "Austin",
                "region": "TX"
            },
            "artist": "Jimmy  Luu",
            "material": "Steel Landscape Edging With Planted Grasses",
            "dates": {
                "installed": {
                    "date_string": "2008-01-01T00:00:00.000"
                }
            }
        },
        {
            "name": "Memorial to the World War ll Dead",
            "coordinates": {
                "longitude": -97.742756,
                "latitude": 30.273339000000004
            },
            "address": {
                "street_address": "11th St and Colorado St",
                "city": "Austin",
                "region": "TX"
            },
            "artist": "L.W. Stolz Memorials",
            "material": "Bronze, Granite",
            "dates": {
                "installed": {
                    "date_string": "1949-01-01T00:00:00.000"
                }
            }
        },
        {
            "name": "Memorial to the Great Builders of Texas",
            "coordinates": {
                "longitude": -97.742727,
                "latitude": 30.274459000000004
            },
            "address": {
                "street_address": "11th St and Colorado St",
                "city": "Austin",
                "region": "TX"
            },
            "artist": "Hugo  Villa",
            "material": "Bronze, Granite, Concrete",
            "dates": {
                "installed": {
                    "date_string": "1938-01-01T00:00:00.000"
                }
            }
        },
        {
            "name": "Outdoor Studio",
            "coordinates": {
                "longitude": -97.71566800000001,
                "latitude": 30.269588000000002
            },
            "address": {
                "street_address": "1143 Northwestern Ave",
                "city": "Austin",
                "region": "TX"
            },
            "artist": "Laurel  Butler,  Rita Starpattern",
            "material": "Painted Stucco On Concrete Masonry Units",
            "dates": {
                "installed": {
                    "date_string": "1990-01-01T00:00:00.000"
                }
            }
        },
        {
            "name": "Pedestrian Geometries #18B",
            "coordinates": {
                "longitude": -97.748009,
                "latitude": 30.266496000000004
            },
            "address": {
                "street_address": "301 Brazos St",
                "city": "Austin",
                "region": "TX"
            },
            "artist": "Erin  Curtis",
            "material": "Elgin-Butler Glazed Brick, Mortar, Grout",
            "dates": {
                "installed": {
                    "date_string": "2013-01-01T00:00:00.000"
                }
            }
        },
        {
            "name": "Brazos Sound Project #12",
            "coordinates": {
                "longitude": -97.74285,
                "latitude": 30.264740000000003
            },
            "address": {
                "street_address": "Brazos north of 2nd Street, east side",
                "city": "Austin",
                "region": "TX"
            },
            "artist": "Sodalitas Art Group",
            "material": "Powder Coated Steel With Electronic Audio Components",
            "dates": {
                "installed": {
                    "date_string": "2016-01-01T00:00:00.000"
                }
            }
        },
        {
            "name": "Autumn Ponds",
            "coordinates": {
                "longitude": -97.75334600000001,
                "latitude": 30.260197
            },
            "address": {
                "street_address": "900 Barton Springs Rd",
                "city": "Austin",
                "region": "TX"
            },
            "artist": "Twyla  Arthur",
            "material": "Stone Tiles",
            "dates": {
                "installed": {
                    "date_string": "2002-01-01T00:00:00.000"
                }
            }
        },
        {
            "name": "Tribute to Gus Garcia",
            "coordinates": {
                "longitude": -97.682049,
                "latitude": 30.352593000000002
            },
            "address": {
                "street_address": "1201 E Rundberg Ln",
                "city": "Austin",
                "region": "TX"
            },
            "artist": "Lars  Stanley",
            "material": "Forged Steel And Stone Desk Surround",
            "dates": {
                "installed": {
                    "date_string": "2008-01-01T00:00:00.000"
                }
            }
        },
        {
            "name": "Untitled (Chris Kern Memorial)",
            "coordinates": {
                "longitude": -97.757176,
                "latitude": 30.265044000000003
            },
            "address": {
                "street_address": "200 S Lamar Blvd",
                "city": "Austin",
                "region": "TX"
            },
            "artist": "Paul  Siebenaler",
            "material": "Granite Bench With Inscription And Surrounding Masonry",
            "dates": {
                "installed": {
                    "date_string": "1992-01-01T00:00:00.000"
                }
            }
        },
        {
            "name": "West Texas Beach Ball",
            "coordinates": {
                "longitude": -97.74731,
                "latitude": 30.264820000000004
            },
            "address": {
                "street_address": "301 W Second St",
                "city": "Austin",
                "region": "TX"
            },
            "artist": "Hank  Waddell",
            "material": "Mesquite Wood",
            "dates": {
                "installed": {
                    "date_string": "2004-01-01T00:00:00.000"
                }
            }
        },
        {
            "name": "Bounce",
            "coordinates": {
                "longitude": -97.74311,
                "latitude": 30.26395
            },
            "address": {
                "street_address": "201 E 2nd St",
                "city": "Austin",
                "region": "TX"
            },
            "artist": "Virginia  Fleck",
            "material": "Archival Digital Prints, Plexiglas",
            "dates": {
                "installed": {
                    "date_string": "2013-01-01T00:00:00.000"
                }
            }
        },
        {
            "name": "Backyard Boat",
            "coordinates": {
                "longitude": -97.689018,
                "latitude": 30.253828000000002
            },
            "address": {
                "street_address": "7201 Levander Loop",
                "city": "Austin",
                "region": "TX"
            },
            "artist": "Nan  Standish Blake",
            "material": "Giclée Print On Fujicolor Crystal Archive Paper",
            "dates": {
                "installed": {
                    "date_string": "2003-01-01T00:00:00.000"
                }
            }
        },
        {
            "name": "Station 24",
            "coordinates": {
                "longitude": -97.742293,
                "latitude": 30.187497
            },
            "address": {
                "street_address": "5811 Nuckols Crossing Rd",
                "city": "Austin",
                "region": "TX"
            },
            "artist": "Rachel Wolfson Smith",
            "material": "graphite on paper",
            "dates": {
                "installed": {
                    "date_string": "2017-01-01T00:00:00.000"
                }
            }
        },
        {
            "name": "Buba at Barton Springs",
            "coordinates": {
                "longitude": -97.74681,
                "latitude": 30.264900000000004
            },
            "address": {
                "street_address": "301 W Second St",
                "city": "Austin",
                "region": "TX"
            },
            "artist": "Roy  Mata",
            "material": "Photographic C-print",
            "dates": {
                "installed": {
                    "date_string": "2003-01-01T00:00:00.000"
                }
            }
        },
        {
            "name": "Array #4",
            "coordinates": {
                "longitude": -97.751694,
                "latitude": 30.266293000000005
            },
            "address": {
                "street_address": "W 2nd Street Extension",
                "city": "Austin",
                "region": "TX"
            },
            "artist": "Judd Graham",
            "material": "Mild Steel",
            "dates": {
                "installed": {
                    "date_string": "2017-01-01T00:00:00.000"
                }
            }
        },
        {
            "name": "Pedestrian Geometries #18",
            "coordinates": {
                "longitude": -97.74074900000001,
                "latitude": 30.264310000000002
            },
            "address": {
                "street_address": "301 Brazos St",
                "city": "Austin",
                "region": "TX"
            },
            "artist": "Erin  Curtis",
            "material": "Elgin-Butler Glazed Brick, Mortar, Grout",
            "dates": {
                "installed": {
                    "date_string": "2013-01-01T00:00:00.000"
                }
            }
        },
        {
            "name": "Granite Gates",
            "coordinates": {
                "longitude": -97.77119,
                "latitude": 30.268810000000002
            },
            "address": {
                "street_address": "2220 Barton Springs Rd",
                "city": "Austin",
                "region": "TX"
            },
            "artist": "Unknown Artist",
            "material": "Carved Granite",
            "dates": {
                "installed": {
                    "date_string": "1998-01-01T00:00:00.000"
                }
            }
        },
        {
            "name": "Keep Austin Weird",
            "coordinates": {
                "longitude": -97.66698000000001,
                "latitude": 30.202080000000002
            },
            "address": {
                "street_address": "3600 Presidential Blvd",
                "city": "Austin",
                "region": "TX"
            },
            "artist": "Sara  Hickman",
            "material": "Stickers And Paper On Fiberglass",
            "dates": {
                "installed": {
                    "date_string": "2006-01-01T00:00:00.000"
                }
            }
        },
        {
            "name": "Pedestrian Geometries #27",
            "coordinates": {
                "longitude": -97.746035,
                "latitude": 30.265834
            },
            "address": {
                "street_address": "301 Brazos St",
                "city": "Austin",
                "region": "TX"
            },
            "artist": "Erin  Curtis",
            "material": "Elgin-Butler Glazed Brick, Mortar, Grout",
            "dates": {
                "installed": {
                    "date_string": "2013-01-01T00:00:00.000"
                }
            }
        },
        {
            "name": "Moments",
            "coordinates": {
                "longitude": -97.754881,
                "latitude": 30.269366
            },
            "address": {
                "street_address": "300 N Lamar Blvd",
                "city": "Austin",
                "region": "TX"
            },
            "artist": "Carl  Trominski",
            "material": "Paint, Metal Reflective Panels",
            "dates": {
                "installed": {
                    "date_string": "2003-01-01T00:00:00.000"
                }
            }
        },
        {
            "name": "Pedestrian Geometries #20",
            "coordinates": {
                "longitude": -97.747091,
                "latitude": 30.266128000000002
            },
            "address": {
                "street_address": "301 Brazos St",
                "city": "Austin",
                "region": "TX"
            },
            "artist": "Erin  Curtis",
            "material": "Elgin-Butler Glazed Brick, Mortar, Grout",
            "dates": {
                "installed": {
                    "date_string": "2013-01-01T00:00:00.000"
                }
            }
        },
        {
            "name": "Aurora",
            "coordinates": {
                "longitude": -97.711117,
                "latitude": 30.265621000000003
            },
            "address": {
                "street_address": "808 Nile St",
                "city": "Austin",
                "region": "TX"
            },
            "artist": "Elizabeth  Busch",
            "material": "Fiber Wall Hanging",
            "dates": {
                "installed": {
                    "date_string": "1988-01-01T00:00:00.000"
                }
            }
        },
        {
            "name": "Brazos Sound Project #4",
            "coordinates": {
                "longitude": -97.742608,
                "latitude": 30.264063000000004
            },
            "address": {
                "street_address": "Brazos south of 4th Street, west side",
                "city": "Austin",
                "region": "TX"
            },
            "artist": "Sodalitas Art Group",
            "material": "Powder Coated Steel With Electronic Audio Components",
            "dates": {
                "installed": {
                    "date_string": "2016-01-01T00:00:00.000"
                }
            }
        },
        {
            "name": "Elevated Prairie",
            "coordinates": {
                "longitude": -97.699814,
                "latitude": 30.259173000000004
            },
            "address": {
                "street_address": "812 Springdale Rd",
                "city": "Austin",
                "region": "TX"
            },
            "artist": "Murray Legge, Deborah Lewis, Andrea Legge  ",
            "material": "Steel Planters, Fountain, Earth Berms, And Native Landscaping",
            "dates": {
                "installed": {
                    "date_string": "2004-01-01T00:00:00.000"
                }
            }
        },
        {
            "name": "Trail of Tejano Legends: Tenderly",
            "coordinates": {
                "longitude": -97.73015000000001,
                "latitude": 30.249331
            },
            "address": {
                "street_address": "1621 Nash Hernandez Sr Rd",
                "city": "Austin",
                "region": "TX"
            },
            "artist": "Connie  Arismendi",
            "material": "Aluminum",
            "dates": {
                "installed": {
                    "date_string": "2008-01-01T00:00:00.000"
                }
            }
        },
        {
            "name": "X",
            "coordinates": {
                "longitude": -97.66992,
                "latitude": 30.211600000000004
            },
            "address": {
                "street_address": "2800 Spirit of Texas Dr",
                "city": "Austin",
                "region": "TX"
            },
            "artist": "Belinda  Casey",
            "material": "Solarplate Etching",
            "dates": {
                "installed": {
                    "date_string": "1997-01-01T00:00:00.000"
                }
            }
        },
        {
            "name": "Reflections on the Brazos",
            "coordinates": {
                "longitude": -97.74293,
                "latitude": 30.264026
            },
            "address": {
                "street_address": "W Second St",
                "city": "Austin",
                "region": "TX"
            },
            "artist": "Ryah  Christensen",
            "material": "Glass, Stone",
            "dates": {
                "installed": {
                    "date_string": "2015-01-01T00:00:00.000"
                }
            }
        },
        {
            "name": "Trilobite Shade",
            "coordinates": {
                "longitude": -97.74971000000001,
                "latitude": 30.277087
            },
            "address": {
                "street_address": "1213 Shoal Creek Blvd",
                "city": "Austin",
                "region": "TX"
            },
            "artist": "Chris  Levack",
            "material": "Rolled Angle Iron, Straight T-iron Members, Ipe Wood Louvers, An ACQ-treated Lumber Nailer System, And A Black Stained Ipe Wedge Network.",
            "dates": {
                "installed": {
                    "date_string": "2011-01-01T00:00:00.000"
                }
            }
        },
        {
            "name": "Celebrating Traditions",
            "coordinates": {
                "longitude": -97.684222,
                "latitude": 30.277456000000004
            },
            "address": {
                "street_address": "1175 Nickols Ave",
                "city": "Austin",
                "region": "TX"
            },
            "artist": "Twyla  Arthur",
            "material": "Ceramic Tile, Metal, Rocks",
            "dates": {
                "installed": {
                    "date_string": "2002-01-01T00:00:00.000"
                }
            }
        },
        {
            "name": "Waller Creek Shelves",
            "coordinates": {
                "longitude": -97.739818,
                "latitude": 30.262322000000005
            },
            "address": {
                "street_address": "500 E Cesar Chavez St",
                "city": "Austin",
                "region": "TX"
            },
            "artist": "Damian  Priour",
            "material": "Blown Glass Vessels With Found Object Sculptures On Carved Limestone And Glass Shelves.",
            "dates": {
                "installed": {
                    "date_string": "1996-01-01T00:00:00.000"
                }
            }
        },
        {
            "name": "Crystalline #8",
            "coordinates": {
                "longitude": -97.74346,
                "latitude": 30.270443000000004
            },
            "address": {
                "street_address": "Colorado Street and 8th Street",
                "city": "Austin",
                "region": "TX"
            },
            "artist": "Dharmesh  Patel,  Autumn J.  Ewalt",
            "material": "Stainless Steel",
            "dates": {
                "installed": {
                    "date_string": "2017-01-01T00:00:00.000"
                }
            }
        },
        {
            "name": "Stevie Ray Vaughan",
            "coordinates": {
                "longitude": -97.750675,
                "latitude": 30.263113000000004
            },
            "address": {
                "street_address": "800 W Riverside Dr",
                "city": "Austin",
                "region": "TX"
            },
            "artist": "Ralph  Helmick",
            "material": "Bronze",
            "dates": {
                "installed": {
                    "date_string": "1994-01-01T00:00:00.000"
                }
            }
        },
        {
            "name": "Big Chiller Blues",
            "coordinates": {
                "longitude": -97.736676,
                "latitude": 30.265147000000002
            },
            "address": {
                "street_address": "601 E Fifth St",
                "city": "Austin",
                "region": "TX"
            },
            "artist": "Ann  Adams",
            "material": "Glass Tiles",
            "dates": {
                "installed": {
                    "date_string": "2005-01-01T00:00:00.000"
                }
            }
        },
        {
            "name": "Progression of Civilization",
            "coordinates": {
                "longitude": -97.721663,
                "latitude": 30.249997
            },
            "address": {
                "street_address": "2400 Holly St",
                "city": "Austin",
                "region": "TX"
            },
            "artist": "Ambray  Gonzales",
            "material": "acrylic paint",
            "dates": {
                "installed": {
                    "date_string": "1992-01-01T00:00:00.000"
                }
            }
        },
        {
            "name": "North Austin Community Garden",
            "coordinates": {
                "longitude": -97.70027900000001,
                "latitude": 30.364945000000002
            },
            "address": {
                "street_address": "1000 W Rundberg Ln",
                "city": "Austin",
                "region": "TX"
            },
            "artist": "Thoughtbarn",
            "material": "Wood, Steel, Paint, PVC-coated Steel Wire, Garden Plan",
            "dates": {
                "installed": {
                    "date_string": "2014-01-01T00:00:00.000"
                }
            }
        },
        {
            "name": "Pedestrian Geometries #10",
            "coordinates": {
                "longitude": -97.743373,
                "latitude": 30.265217000000003
            },
            "address": {
                "street_address": "301 Brazos St",
                "city": "Austin",
                "region": "TX"
            },
            "artist": "Erin  Curtis",
            "material": "Elgin-Butler Glazed Brick, Mortar, Grout",
            "dates": {
                "installed": {
                    "date_string": "2013-01-01T00:00:00.000"
                }
            }
        },
        {
            "name": "Who  Lives Here? / Quien vive aqui?",
            "coordinates": {
                "longitude": -97.711636,
                "latitude": 30.260586000000004
            },
            "address": {
                "street_address": "E 7th and Calles",
                "city": "Austin",
                "region": "TX"
            },
            "artist": "Claudia  Reese",
            "material": "Stoneware On Cement Board",
            "dates": {
                "installed": {
                    "date_string": "2011-01-01T00:00:00.000"
                }
            }
        },
        {
            "name": "Power Picket",
            "coordinates": {
                "longitude": -97.751643,
                "latitude": 30.26741
            },
            "address": {
                "street_address": "Seaholm Substation Wall",
                "city": "Austin",
                "region": "TX"
            },
            "artist": "NADAAA",
            "material": "Precast Pigmented Concrete, Perforated Metal Panels",
            "dates": {
                "installed": {
                    "date_string": "2016-01-01T00:00:00.000"
                }
            }
        },
        {
            "name": "Squirrley",
            "coordinates": {
                "longitude": -97.74651,
                "latitude": 30.265000000000004
            },
            "address": {
                "street_address": "301 W Second St",
                "city": "Austin",
                "region": "TX"
            },
            "artist": "James  Tisdale",
            "material": "Terracotta",
            "dates": {
                "installed": {
                    "date_string": "2008-01-01T00:00:00.000"
                }
            }
        },
        {
            "name": "Geode",
            "coordinates": {
                "longitude": -97.704586,
                "latitude": 30.30066
            },
            "address": {
                "street_address": "4624 1/2 James Wheat St",
                "city": "Austin",
                "region": "TX"
            },
            "artist": "Hunter  Cross",
            "material": "Plaster, Glass, Electrical, Metal, Concrete",
            "dates": {
                "installed": {
                    "date_string": "2014-01-01T00:00:00.000"
                }
            }
        },
        {
            "name": "Sea of Knowledge",
            "coordinates": {
                "longitude": -97.730643,
                "latitude": 30.362139
            },
            "address": {
                "street_address": "2505 Steck Ave",
                "city": "Austin",
                "region": "TX"
            },
            "artist": "Kathleen  Ash",
            "material": "Laminated Decorative Glass, Kiln-fired Paint",
            "dates": {
                "installed": {
                    "date_string": "2009-01-01T00:00:00.000"
                }
            }
        },
        {
            "name": "Jimmy Clay",
            "coordinates": {
                "longitude": -97.732321,
                "latitude": 30.185228000000002
            },
            "address": {
                "street_address": "5400 Jimmy Clay Dr",
                "city": "Austin",
                "region": "TX"
            },
            "artist": "Daniel  Hawkins",
            "material": "Bronze, Granite",
            "dates": {
                "installed": {
                    "date_string": "1972-01-01T00:00:00.000"
                }
            }
        },
        {
            "name": "Deep Eddy Mural Project",
            "coordinates": {
                "longitude": -97.772897,
                "latitude": 30.277201
            },
            "address": {
                "street_address": "401 Deep Eddy Dr",
                "city": "Austin",
                "region": "TX"
            },
            "artist": "Wanda  Montemayor,  Lisa Kay  Orr",
            "material": "Handmade Ceramic Tiles, Glass Tiles",
            "dates": {
                "installed": {
                    "date_string": "2011-01-01T00:00:00.000"
                }
            }
        },
        {
            "name": "Macro / Micro Culture",
            "coordinates": {
                "longitude": -97.739478,
                "latitude": 30.263956000000004
            },
            "address": {
                "street_address": "500 E Cesar Chavez St",
                "city": "Austin",
                "region": "TX"
            },
            "artist": "Rolando Briseño",
            "material": "Giclee Print",
            "dates": {
                "installed": {
                    "date_string": "2002-01-01T00:00:00.000"
                }
            }
        },
        {
            "name": "Three Sheep",
            "coordinates": {
                "longitude": -97.7475,
                "latitude": 30.264660000000003
            },
            "address": {
                "street_address": "301 W Second St",
                "city": "Austin",
                "region": "TX"
            },
            "artist": "Benge  Elliott",
            "material": "Steel",
            "dates": {
                "installed": {
                    "date_string": "2003-01-01T00:00:00.000"
                }
            }
        },
        {
            "name": "Confabulating Orbits",
            "coordinates": {
                "longitude": -97.740769,
                "latitude": 30.262721000000003
            },
            "address": {
                "street_address": "500 E Cesar Chavez St",
                "city": "Austin",
                "region": "TX"
            },
            "artist": "Ben  Livingston",
            "material": "Neon And Copper",
            "dates": {
                "installed": {
                    "date_string": "1996-01-01T00:00:00.000"
                }
            }
        },
        {
            "name": "Read More Books",
            "coordinates": {
                "longitude": -97.730265,
                "latitude": 30.362136
            },
            "address": {
                "street_address": "2505 Steck Ave",
                "city": "Austin",
                "region": "TX"
            },
            "artist": "Kathleen  Ash",
            "material": "Laminated Decorative Glass, Kiln-fired Paint, Cables",
            "dates": {
                "installed": {
                    "date_string": "2009-01-01T00:00:00.000"
                }
            }
        },
        {
            "name": "Untitled",
            "coordinates": {
                "longitude": -97.711056,
                "latitude": 30.265669000000003
            },
            "address": {
                "street_address": "808 Nile St",
                "city": "Austin",
                "region": "TX"
            },
            "artist": "Garth  Edwards",
            "material": "Lead Stained Glass Window",
            "dates": {
                "installed": {
                    "date_string": "1988-01-01T00:00:00.000"
                }
            }
        },
        {
            "name": "Dove and the Leaves of Healing",
            "coordinates": {
                "longitude": -97.68429800000001,
                "latitude": 30.278090000000002
            },
            "address": {
                "street_address": "1201 Webberville Rd",
                "city": "Austin",
                "region": "TX"
            },
            "artist": "Pio  Pulido",
            "material": "Fiberglass, Concrete",
            "dates": {
                "installed": {
                    "date_string": "1996-01-01T00:00:00.000"
                }
            }
        },
        {
            "name": "Angelina Eberly",
            "coordinates": {
                "longitude": -97.742723,
                "latitude": 30.268631000000003
            },
            "address": {
                "street_address": "612 Congress Ave",
                "city": "Austin",
                "region": "TX"
            },
            "artist": "Pat  Oliphant",
            "material": "Bronze, Granite",
            "dates": {
                "installed": {
                    "date_string": "2004-01-01T00:00:00.000"
                }
            }
        },
        {
            "name": "Lady Bird Johnson Wildflower Spring #2",
            "coordinates": {
                "longitude": -97.689018,
                "latitude": 30.253828000000002
            },
            "address": {
                "street_address": "7201 Levander Loop",
                "city": "Austin",
                "region": "TX"
            },
            "artist": "Victoria  Smith",
            "material": "Archival Iris Giclee Photograph On Somerset Watercolor Paper",
            "dates": {
                "installed": {
                    "date_string": "1999-01-01T00:00:00.000"
                }
            }
        },
        {
            "name": "Hillside Mural",
            "coordinates": {
                "longitude": -97.721557,
                "latitude": 30.258620000000004
            },
            "address": {
                "street_address": "2100 E Third St",
                "city": "Austin",
                "region": "TX"
            },
            "artist": "Raul  Valdez",
            "material": "Acrylic Paint On Existing Cement And Cinderblock Walls",
            "dates": {
                "installed": {
                    "date_string": "1978-01-01T00:00:00.000"
                }
            }
        },
        {
            "name": "Shoestring",
            "coordinates": {
                "longitude": -97.689018,
                "latitude": 30.253828000000002
            },
            "address": {
                "street_address": "7201 Levander Loop",
                "city": "Austin",
                "region": "TX"
            },
            "artist": "Shelley  Wood",
            "material": "Selenium-toned Silver Gelatin Print",
            "dates": {
                "installed": {
                    "date_string": "2003-01-01T00:00:00.000"
                }
            }
        },
        {
            "name": "¡ Mira !",
            "coordinates": {
                "longitude": -97.732321,
                "latitude": 30.185228000000002
            },
            "address": {
                "street_address": "34 Robert Martinez Jr St",
                "city": "Austin",
                "region": "TX"
            },
            "artist": "Will  Larson",
            "material": "Copper, Aluminum, Neon",
            "dates": {
                "installed": {
                    "date_string": "2000-01-01T00:00:00.000"
                }
            }
        },
        {
            "name": "Texas Slam: Portrait of Morris Williams Jr.",
            "coordinates": {
                "longitude": -97.690932,
                "latitude": 30.289673000000004
            },
            "address": {
                "street_address": "4300 Manor Rd",
                "city": "Austin",
                "region": "TX"
            },
            "artist": "Ansen  Seale",
            "material": "Acrylic Paint On Acrylic Panels, Set In A Wood Frame With Tempered Glass",
            "dates": {
                "installed": {
                    "date_string": "2013-01-01T00:00:00.000"
                }
            }
        },
        {
            "name": "Vision",
            "coordinates": {
                "longitude": -97.742932,
                "latitude": 30.270468000000005
            },
            "address": {
                "street_address": "124 W 8th St",
                "city": "Austin",
                "region": "TX"
            },
            "artist": "Doug  Jacques",
            "material": "Acrylic On Canvas",
            "dates": {
                "installed": {
                    "date_string": "1994-01-01T00:00:00.000"
                }
            }
        },
        {
            "name": "Crystalline #4",
            "coordinates": {
                "longitude": -97.744173,
                "latitude": 30.268760000000004
            },
            "address": {
                "street_address": "Colorado Street",
                "city": "Austin",
                "region": "TX"
            },
            "artist": "Dharmesh  Patel,  Autumn J.  Ewalt",
            "material": "Stainless Steel",
            "dates": {
                "installed": {
                    "date_string": "2013-01-01T00:00:00.000"
                }
            }
        },
        {
            "name": "Piece of My Heart",
            "coordinates": {
                "longitude": -97.66698000000001,
                "latitude": 30.202080000000002
            },
            "address": {
                "street_address": "3600 Presidential Blvd",
                "city": "Austin",
                "region": "TX"
            },
            "artist": "Tracy  Sutton",
            "material": "Acrylic Paint On Fiberglass",
            "dates": {
                "installed": {
                    "date_string": "2006-01-01T00:00:00.000"
                }
            }
        },
        {
            "name": "Uplifted Ground",
            "coordinates": {
                "longitude": -97.66713700000001,
                "latitude": 30.204077
            },
            "address": {
                "street_address": "3600 Presidential Blvd",
                "city": "Austin",
                "region": "TX"
            },
            "artist": "Michael Singer Studio",
            "material": "Cast Concrete, Steel Cable, Granite, Stainless Steel, Copper, LED Lighting",
            "dates": {
                "installed": {
                    "date_string": "2015-01-01T00:00:00.000"
                }
            }
        },
        {
            "name": "Unity = Peace = Success",
            "coordinates": {
                "longitude": -97.721616,
                "latitude": 30.249804
            },
            "address": {
                "street_address": "2400 Holly St",
                "city": "Austin",
                "region": "TX"
            },
            "artist": "Armando (Tanner)  Martinez, Felipe Garza",
            "material": "acrylic paint",
            "dates": {
                "installed": {
                    "date_string": "1992-01-01T00:00:00.000"
                }
            }
        },
        {
            "name": "Safe",
            "coordinates": {
                "longitude": -97.689018,
                "latitude": 30.253828000000002
            },
            "address": {
                "street_address": "7201 Levander Loop",
                "city": "Austin",
                "region": "TX"
            },
            "artist": "Nan  Standish Blake",
            "material": "Giclée Print On Fujicolor Crystal Archive Paper",
            "dates": {
                "installed": {
                    "date_string": "2003-01-01T00:00:00.000"
                }
            }
        },
        {
            "name": "Accordion 16",
            "coordinates": {
                "longitude": -97.75322700000001,
                "latitude": 30.266835000000004
            },
            "address": {
                "street_address": "211 Walter Seaholm Dr",
                "city": "Austin",
                "region": "TX"
            },
            "artist": "Sten Lex",
            "material": "Exterior Latex On Concrete",
            "dates": {
                "installed": {
                    "date_string": "2016-01-01T00:00:00.000"
                }
            }
        },
        {
            "name": "Snake Path",
            "coordinates": {
                "longitude": -97.740239,
                "latitude": 30.258163000000003
            },
            "address": {
                "street_address": "600 River St",
                "city": "Austin",
                "region": "TX"
            },
            "artist": "Benito  Huerta",
            "material": "Brick Pavers",
            "dates": {
                "installed": {
                    "date_string": "2007-01-01T00:00:00.000"
                }
            }
        },
        {
            "name": "Community Screen: Charms",
            "coordinates": {
                "longitude": -97.751796,
                "latitude": 30.333817
            },
            "address": {
                "street_address": "2913 Northland Dr",
                "city": "Austin",
                "region": "TX"
            },
            "artist": "Jill  Bedgood",
            "material": "Aluminum, Stainless Steel, Paint",
            "dates": {
                "installed": {
                    "date_string": "2012-01-01T00:00:00.000"
                }
            }
        },
        {
            "name": "Hour Glass Seating Arbor",
            "coordinates": {
                "longitude": -97.710536,
                "latitude": 30.265427000000003
            },
            "address": {
                "street_address": "2800 Webberville Rd",
                "city": "Austin",
                "region": "TX"
            },
            "artist": "Philippe  Klinefelter",
            "material": "Granite, Steel, Landscaping",
            "dates": {
                "installed": {
                    "date_string": "2006-01-01T00:00:00.000"
                }
            }
        },
        {
            "name": "The Cyclist",
            "coordinates": {
                "longitude": -97.689018,
                "latitude": 30.253828000000002
            },
            "address": {
                "street_address": "7201 Levander Loop",
                "city": "Austin",
                "region": "TX"
            },
            "artist": "Terese M. St. Arnauld",
            "material": "Silver Gelatin Print",
            "dates": {
                "installed": {
                    "date_string": "1999-01-01T00:00:00.000"
                }
            }
        },
        {
            "name": "Deuce Gates",
            "coordinates": {
                "longitude": -97.638658,
                "latitude": 30.312298000000002
            },
            "address": {
                "street_address": "7800 Johnny Morris Rd",
                "city": "Austin",
                "region": "TX"
            },
            "artist": "Martha  Gannon",
            "material": "Galvanized Steel Gates And Adjacent Fence Panels At Entrance Of Austin Tennis Center",
            "dates": {
                "installed": {
                    "date_string": "2008-01-01T00:00:00.000"
                }
            }
        },
        {
            "name": "Pedestrian Geometries #5",
            "coordinates": {
                "longitude": -97.748779,
                "latitude": 30.266714000000004
            },
            "address": {
                "street_address": "301 Brazos St",
                "city": "Austin",
                "region": "TX"
            },
            "artist": "Erin  Curtis",
            "material": "Elgin-Butler Glazed Brick, Mortar, Grout",
            "dates": {
                "installed": {
                    "date_string": "2013-01-01T00:00:00.000"
                }
            }
        },
        {
            "name": "Reach for Your Dreams",
            "coordinates": {
                "longitude": -97.701451,
                "latitude": 30.243350000000003
            },
            "address": {
                "street_address": "800 Grove Blvd",
                "city": "Austin",
                "region": "TX"
            },
            "artist": "Ambray  Gonzales",
            "material": "Carved Limestone, Slate Tiles, River Rocks",
            "dates": {
                "installed": {
                    "date_string": "2002-01-01T00:00:00.000"
                }
            }
        },
        {
            "name": "Four Terrorists Trapped in a Bullring",
            "coordinates": {
                "longitude": -97.66992,
                "latitude": 30.211600000000004
            },
            "address": {
                "street_address": "2800 Spirit of Texas Dr",
                "city": "Austin",
                "region": "TX"
            },
            "artist": "Robert  Levers",
            "material": "Soft Ground Etching",
            "dates": {
                "installed": {
                    "date_string": "1993-01-01T00:00:00.000"
                }
            }
        },
        {
            "name": "Untitled (Floor Mosaic)",
            "coordinates": {
                "longitude": -97.696194,
                "latitude": 30.414330000000003
            },
            "address": {
                "street_address": "12425 Lamplight Village Ave",
                "city": "Austin",
                "region": "TX"
            },
            "artist": "Tre  Arenz, Jake Gilson",
            "material": "Granite Tiles",
            "dates": {
                "installed": {
                    "date_string": "1994-01-01T00:00:00.000"
                }
            }
        },
        {
            "name": "Stem Rack",
            "coordinates": {
                "longitude": -97.743671,
                "latitude": 30.264101000000004
            },
            "address": {
                "street_address": "107 E 2nd St",
                "city": "Austin",
                "region": "TX"
            },
            "artist": "Ann  Armstrong",
            "material": "Mild Steel",
            "dates": {
                "installed": {
                    "date_string": "2012-01-01T00:00:00.000"
                }
            }
        },
        {
            "name": "Big Arch",
            "coordinates": {
                "longitude": -97.72174700000001,
                "latitude": 30.249858000000003
            },
            "address": {
                "street_address": "2400 Holly St",
                "city": "Austin",
                "region": "TX"
            },
            "artist": "David  Santos",
            "material": "Carved Limestone And Forged Iron Sculpture",
            "dates": {
                "installed": {
                    "date_string": "1992-01-01T00:00:00.000"
                }
            }
        },
        {
            "name": "Bounce",
            "coordinates": {
                "longitude": -97.81099800000001,
                "latitude": 30.43934
            },
            "address": {
                "street_address": "10904 Pickfair Dr",
                "city": "Austin",
                "region": "TX"
            },
            "artist": "Virginia  Fleck",
            "material": "Archival Digital Prints, Plexiglas",
            "dates": {
                "installed": {
                    "date_string": "2015-01-01T00:00:00.000"
                }
            }
        },
        {
            "name": "MusiCapital",
            "coordinates": {
                "longitude": -97.66698000000001,
                "latitude": 30.202080000000002
            },
            "address": {
                "street_address": "3600 Presidential Blvd",
                "city": "Austin",
                "region": "TX"
            },
            "artist": "Sharon Roy Finch",
            "material": "Graphite, Oils And Sealant On Fiberglass",
            "dates": {
                "installed": {
                    "date_string": "2006-01-01T00:00:00.000"
                }
            }
        },
        {
            "name": "Untitled",
            "coordinates": {
                "longitude": -97.755996,
                "latitude": 30.260643
            },
            "address": {
                "street_address": "1110 Barton Springs Rd",
                "city": "Austin",
                "region": "TX"
            },
            "artist": "David  Ellis",
            "material": "Cor-ten Steel, Limestone, Wood",
            "dates": {
                "installed": {
                    "date_string": "1980-01-01T00:00:00.000"
                }
            }
        },
        {
            "name": "Crumley's Market",
            "coordinates": {
                "longitude": -97.74729,
                "latitude": 30.26479
            },
            "address": {
                "street_address": "301 W Second St",
                "city": "Austin",
                "region": "TX"
            },
            "artist": "Jack L. Schuller",
            "material": "Acrylic On Canvas",
            "dates": {
                "installed": {
                    "date_string": "1992-01-01T00:00:00.000"
                }
            }
        },
        {
            "name": "Pedestrian Geometries #23",
            "coordinates": {
                "longitude": -97.744821,
                "latitude": 30.265593000000003
            },
            "address": {
                "street_address": "301 Brazos St",
                "city": "Austin",
                "region": "TX"
            },
            "artist": "Erin  Curtis",
            "material": "Elgin-Butler Glazed Brick, Mortar, Grout",
            "dates": {
                "installed": {
                    "date_string": "2013-01-01T00:00:00.000"
                }
            }
        },
        {
            "name": "The Reading Chair",
            "coordinates": {
                "longitude": -97.778372,
                "latitude": 30.266724000000004
            },
            "address": {
                "street_address": "2401 Columbus Dr",
                "city": "Austin",
                "region": "TX"
            },
            "artist": "Margaret Heffernan, Michael  Heffernan,  Faith  Schexnayder,  Sara  Twaddle",
            "material": "Ceramic And Glass Tiles, Concrete Masonry Unit",
            "dates": {
                "installed": {
                    "date_string": "2011-01-01T00:00:00.000"
                }
            }
        },
        {
            "name": "Austin  Downtown Cruiser (Day)",
            "coordinates": {
                "longitude": -97.66808,
                "latitude": 30.2021
            },
            "address": {
                "street_address": "3600 Presidential Blvd",
                "city": "Austin",
                "region": "TX"
            },
            "artist": "Young-Min Kang",
            "material": "Laminated Digital Prints Adhered To Shaped Aluminum Composite Panels Attached To Wooden Framework",
            "dates": {
                "installed": {
                    "date_string": "2009-01-01T00:00:00.000"
                }
            }
        },
        {
            "name": "Nosotros",
            "coordinates": {
                "longitude": -97.718377,
                "latitude": 30.252260000000003
            },
            "address": {
                "street_address": "2407 Canterbury St",
                "city": "Austin",
                "region": "TX"
            },
            "artist": "Pete  Castilleja",
            "material": "Acrylic Paint On CMU Wall, Painted Wood Frame",
            "dates": {
                "installed": {
                    "date_string": "1974-01-01T00:00:00.000"
                }
            }
        },
        {
            "name": "Blackbird",
            "coordinates": {
                "longitude": -97.747203,
                "latitude": 30.268006000000003
            },
            "address": {
                "street_address": "422 Guadalupe St",
                "city": "Austin",
                "region": "TX"
            },
            "artist": "Kincannon Studios",
            "material": "Texas Limestone, Black Mineral Finish, Bronze",
            "dates": {
                "installed": {
                    "date_string": "2017-01-01T00:00:00.000"
                }
            }
        },
        {
            "name": "El futuro es una página en blanco. Qué escribirás en ella?",
            "coordinates": {
                "longitude": -97.733324,
                "latitude": 30.260012000000003
            },
            "address": {
                "street_address": "1105 E Cesar Chavez St",
                "city": "Austin",
                "region": "TX"
            },
            "artist": "Connie  Arismendi",
            "material": "Aquajet Cut Aluminum",
            "dates": {
                "installed": {
                    "date_string": "2005-01-01T00:00:00.000"
                }
            }
        },
        {
            "name": "Rhytons",
            "coordinates": {
                "longitude": -97.758013,
                "latitude": 30.264350000000004
            },
            "address": {
                "street_address": "202 S Lamar Blvd.",
                "city": "Austin",
                "region": "TX"
            },
            "artist": "Cliff  Garten",
            "material": "Bronze, Sound Components",
            "dates": {
                "installed": {
                    "date_string": "2012-01-01T00:00:00.000"
                }
            }
        },
        {
            "name": "Spirit of Hope",
            "coordinates": {
                "longitude": -97.710959,
                "latitude": 30.271834000000002
            },
            "address": {
                "street_address": "1156 Hargrave St",
                "city": "Austin",
                "region": "TX"
            },
            "artist": "David  Newton",
            "material": "Bronze",
            "dates": {
                "installed": {
                    "date_string": "2000-01-01T00:00:00.000"
                }
            }
        },
        {
            "name": "Pedestrian Geometries #29",
            "coordinates": {
                "longitude": -97.742299,
                "latitude": 30.264753000000002
            },
            "address": {
                "street_address": "301 Brazos St",
                "city": "Austin",
                "region": "TX"
            },
            "artist": "Erin  Curtis",
            "material": "Elgin-Butler Glazed Brick, Mortar, Grout",
            "dates": {
                "installed": {
                    "date_string": "2013-01-01T00:00:00.000"
                }
            }
        },
        {
            "name": "Crosswalk on the Lake",
            "coordinates": {
                "longitude": -97.78246,
                "latitude": 30.29417
            },
            "address": {
                "street_address": "3701 Lake Austin Blvd",
                "city": "Austin",
                "region": "TX"
            },
            "artist": "Mery Godigna Collet,  Luis R. Gutierrez",
            "material": "Median Street And Traffic Paint",
            "dates": {
                "installed": {
                    "date_string": "2016-01-01T00:00:00.000"
                }
            }
        },
        {
            "name": "Flights of Fancy",
            "coordinates": {
                "longitude": -97.740711,
                "latitude": 30.323427000000002
            },
            "address": {
                "street_address": "2200 Hancock Dr",
                "city": "Austin",
                "region": "TX"
            },
            "artist": "Marla  Camp",
            "material": "Acrylic Paint, Metal",
            "dates": {
                "installed": {
                    "date_string": "1998-01-01T00:00:00.000"
                }
            }
        },
        {
            "name": "Worker",
            "coordinates": {
                "longitude": -97.689018,
                "latitude": 30.253828000000002
            },
            "address": {
                "street_address": "7201 Levander Loop",
                "city": "Austin",
                "region": "TX"
            },
            "artist": "Andrew  Ortiz",
            "material": "Archival Giclee Print",
            "dates": {
                "installed": {
                    "date_string": "2000-01-01T00:00:00.000"
                }
            }
        },
        {
            "name": "Trail of Tejano Legends: Una Cancion de Fe y Familia",
            "coordinates": {
                "longitude": -97.740848,
                "latitude": 30.258003000000002
            },
            "address": {
                "street_address": "600 River St",
                "city": "Austin",
                "region": "TX"
            },
            "artist": "Connie  Arismendi",
            "material": "Aluminum",
            "dates": {
                "installed": {
                    "date_string": "2008-01-01T00:00:00.000"
                }
            }
        },
        {
            "name": "Rebekah Baines Johnson Health Center Mural",
            "coordinates": {
                "longitude": -97.733152,
                "latitude": 30.253439000000004
            },
            "address": {
                "street_address": "15 Waller St",
                "city": "Austin",
                "region": "TX"
            },
            "artist": "Pio  Pulido",
            "material": "Acrylic Paint",
            "dates": {
                "installed": {
                    "date_string": "1999-01-01T00:00:00.000"
                }
            }
        },
        {
            "name": "Wander",
            "coordinates": {
                "longitude": -97.751593,
                "latitude": 30.266295000000003
            },
            "address": {
                "street_address": "710 W Cesar Chavez St.",
                "city": "Austin",
                "region": "TX"
            },
            "artist": "Chris Gannon,  Brockett Davidson,  Chadwick Wood",
            "material": "Interactive Digital Media, Painted Steel",
            "dates": {
                "installed": {
                    "date_string": "2017-01-01T00:00:00.000"
                }
            }
        },
        {
            "name": "Miguel Hidalgo y Costilla",
            "coordinates": {
                "longitude": -97.747647,
                "latitude": 30.267788000000003
            },
            "address": {
                "street_address": "422 Guadalupe St",
                "city": "Austin",
                "region": "TX"
            },
            "artist": "Juan Antonio  Lugo Villegas",
            "material": "Bronze, Cast Cement Pedestal",
            "dates": {
                "installed": {
                    "date_string": "2003-01-01T00:00:00.000"
                }
            }
        },
        {
            "name": "Arboreal Passage",
            "coordinates": {
                "longitude": -97.773401,
                "latitude": 30.272191000000003
            },
            "address": {
                "street_address": "301 Nature Center Dr",
                "city": "Austin",
                "region": "TX"
            },
            "artist": "Colin  McIntyre",
            "material": "Steel, Bronze, Copper, Limestone, Wood",
            "dates": {
                "installed": {
                    "date_string": "2011-01-01T00:00:00.000"
                }
            }
        },
        {
            "name": "Pedestrian Geometries #2",
            "coordinates": {
                "longitude": -97.744665,
                "latitude": 30.26544
            },
            "address": {
                "street_address": "301 Brazos St",
                "city": "Austin",
                "region": "TX"
            },
            "artist": "Erin  Curtis",
            "material": "Elgin-Butler Glazed Brick, Mortar, Grout",
            "dates": {
                "installed": {
                    "date_string": "2013-01-01T00:00:00.000"
                }
            }
        },
        {
            "name": "Buttermilk Pie",
            "coordinates": {
                "longitude": -97.74729,
                "latitude": 30.264750000000003
            },
            "address": {
                "street_address": "301 W Second St",
                "city": "Austin",
                "region": "TX"
            },
            "artist": "Ryan Montgomery",
            "material": "Oil On Canvas",
            "dates": {
                "installed": {
                    "date_string": "2016-01-01T00:00:00.000"
                }
            }
        },
        {
            "name": "One by One",
            "coordinates": {
                "longitude": -97.66992,
                "latitude": 30.211600000000004
            },
            "address": {
                "street_address": "2800 Spirit of Texas Dr",
                "city": "Austin",
                "region": "TX"
            },
            "artist": "Gabel  Karsten",
            "material": "Multi-plate Aquatint",
            "dates": {
                "installed": {
                    "date_string": "1996-01-01T00:00:00.000"
                }
            }
        },
        {
            "name": "Learning to Fly",
            "coordinates": {
                "longitude": -97.716097,
                "latitude": 30.422343
            },
            "address": {
                "street_address": "12500 Amherst Dr",
                "city": "Austin",
                "region": "TX"
            },
            "artist": "Lori  Norwood",
            "material": "5 Painted Steel Sculptures On Limestone Boulders",
            "dates": {
                "installed": {
                    "date_string": "1997-01-01T00:00:00.000"
                }
            }
        },
        {
            "name": "Golden-Cheeked Warbler",
            "coordinates": {
                "longitude": -97.939177,
                "latitude": 30.330669
            },
            "address": {
                "street_address": "3621 Ranch Road 620 South",
                "city": "Austin",
                "region": "TX"
            },
            "artist": "Jules  Jones",
            "material": "Acrylic And Mixed Media On Paper; John James Audubon's \"Birds Of America\"",
            "dates": {
                "installed": {
                    "date_string": "2009-01-01T00:00:00.000"
                }
            }
        },
        {
            "name": "Station 22",
            "coordinates": {
                "longitude": -97.713222,
                "latitude": 30.229501
            },
            "address": {
                "street_address": "5309 E Riverside Dr",
                "city": "Austin",
                "region": "TX"
            },
            "artist": "Rachel Wolfson Smith",
            "material": "enamel paint on aluminum",
            "dates": {
                "installed": {
                    "date_string": "2017-01-01T00:00:00.000"
                }
            }
        },
        {
            "name": "Karst Circle",
            "coordinates": {
                "longitude": -97.897569,
                "latitude": 30.182934000000003
            },
            "address": {
                "street_address": "11401 Escarpment Blvd",
                "city": "Austin",
                "region": "TX"
            },
            "artist": "W. Gary  Smith",
            "material": "Karst Stones, Native Grasses",
            "dates": {
                "installed": {
                    "date_string": "2004-01-01T00:00:00.000"
                }
            }
        },
        {
            "name": "Reflect",
            "coordinates": {
                "longitude": -97.793153,
                "latitude": 30.175504
            },
            "address": {
                "street_address": "404 Ralph Ablanedo Dr",
                "city": "Austin",
                "region": "TX"
            },
            "artist": "Linnea  Glatt",
            "material": "Limestone, Glass, Native Plantings",
            "dates": {
                "installed": {
                    "date_string": "2002-01-01T00:00:00.000"
                }
            }
        },
        {
            "name": "Crystalline #7",
            "coordinates": {
                "longitude": -97.743657,
                "latitude": 30.269495000000003
            },
            "address": {
                "street_address": "Colorado Street and 7th Street",
                "city": "Austin",
                "region": "TX"
            },
            "artist": "Dharmesh  Patel,  Autumn J.  Ewalt",
            "material": "Stainless Steel",
            "dates": {
                "installed": {
                    "date_string": "2017-01-01T00:00:00.000"
                }
            }
        },
        {
            "name": "Pedestrian Geometries #24",
            "coordinates": {
                "longitude": -97.744854,
                "latitude": 30.265602
            },
            "address": {
                "street_address": "301 Brazos St",
                "city": "Austin",
                "region": "TX"
            },
            "artist": "Erin  Curtis",
            "material": "Elgin-Butler Glazed Brick, Mortar, Grout",
            "dates": {
                "installed": {
                    "date_string": "2013-01-01T00:00:00.000"
                }
            }
        },
        {
            "name": "Prayer Wheel",
            "coordinates": {
                "longitude": -97.77126100000001,
                "latitude": 30.264224000000002
            },
            "address": {
                "street_address": "2201 Barton Springs Rd",
                "city": "Austin",
                "region": "TX"
            },
            "artist": "Hawkeye  Glenn",
            "material": "Granite, Limestone, Steel, Porcelain Enamel",
            "dates": {
                "installed": {
                    "date_string": "2014-01-01T00:00:00.000"
                }
            }
        },
        {
            "name": "Flamingo Mitote",
            "coordinates": {
                "longitude": -97.709338,
                "latitude": 30.296222000000004
            },
            "address": {
                "street_address": "4201 Brookview Rd",
                "city": "Austin",
                "region": "TX"
            },
            "artist": "Stefanie  Distefano",
            "material": "Ceramic Tiles, Mirrored Tiles",
            "dates": {
                "installed": {
                    "date_string": "2012-01-01T00:00:00.000"
                }
            }
        },
        {
            "name": "Our Neighborhood",
            "coordinates": {
                "longitude": -97.74299,
                "latitude": 30.263620000000003
            },
            "address": {
                "street_address": "201 E 2nd St",
                "city": "Austin",
                "region": "TX"
            },
            "artist": "James  Janknegt",
            "material": "Oil On Canvas",
            "dates": {
                "installed": {
                    "date_string": "1993-01-01T00:00:00.000"
                }
            }
        },
        {
            "name": "Array #3",
            "coordinates": {
                "longitude": -97.751833,
                "latitude": 30.266426000000003
            },
            "address": {
                "street_address": "W 2nd Street Extension",
                "city": "Austin",
                "region": "TX"
            },
            "artist": "Judd Graham",
            "material": "Mild Steel",
            "dates": {
                "installed": {
                    "date_string": "2017-01-01T00:00:00.000"
                }
            }
        },
        {
            "name": "La Pinata",
            "coordinates": {
                "longitude": -97.66992,
                "latitude": 30.211600000000004
            },
            "address": {
                "street_address": "2800 Spirit of Texas Dr",
                "city": "Austin",
                "region": "TX"
            },
            "artist": "David  Serrano",
            "material": "Serigraph",
            "dates": {
                "installed": {
                    "date_string": "1996-01-01T00:00:00.000"
                }
            }
        },
        {
            "name": "Brazos Sound Project #11",
            "coordinates": {
                "longitude": -97.74263,
                "latitude": 30.265300000000003
            },
            "address": {
                "street_address": "Brazos between 3rd and 4th Street, east side",
                "city": "Austin",
                "region": "TX"
            },
            "artist": "Sodalitas Art Group",
            "material": "Powder Coated Steel With Electronic Audio Components",
            "dates": {
                "installed": {
                    "date_string": "2016-01-01T00:00:00.000"
                }
            }
        },
        {
            "name": "Lady Bird Johnson Wildflower Spring #3",
            "coordinates": {
                "longitude": -97.689018,
                "latitude": 30.253828000000002
            },
            "address": {
                "street_address": "7201 Levander Loop",
                "city": "Austin",
                "region": "TX"
            },
            "artist": "Victoria  Smith",
            "material": "Archival Iris Giclee Photograph On Somerset Watercolor Paper",
            "dates": {
                "installed": {
                    "date_string": "1999-01-01T00:00:00.000"
                }
            }
        },
        {
            "name": "Crystalline #3",
            "coordinates": {
                "longitude": -97.744283,
                "latitude": 30.268244000000003
            },
            "address": {
                "street_address": "Colorado Street",
                "city": "Austin",
                "region": "TX"
            },
            "artist": "Dharmesh  Patel,  Autumn J.  Ewalt",
            "material": "Stainless Steel",
            "dates": {
                "installed": {
                    "date_string": "2013-01-01T00:00:00.000"
                }
            }
        },
        {
            "name": "La Guitarra",
            "coordinates": {
                "longitude": -97.66698000000001,
                "latitude": 30.202080000000002
            },
            "address": {
                "street_address": "3600 Presidential Blvd",
                "city": "Austin",
                "region": "TX"
            },
            "artist": "Delfin  Escalante",
            "material": "Acrylic Paint And Marker On Fiberglass",
            "dates": {
                "installed": {
                    "date_string": "2006-01-01T00:00:00.000"
                }
            }
        },
        {
            "name": "General Ignacio Zaragoza",
            "coordinates": {
                "longitude": -97.711567,
                "latitude": 30.261743000000003
            },
            "address": {
                "street_address": "2608 Gonzales St",
                "city": "Austin",
                "region": "TX"
            },
            "artist": "Victor  Gutierrez",
            "material": "Bronze",
            "dates": {
                "installed": {
                    "date_string": "1996-01-01T00:00:00.000"
                }
            }
        },
        {
            "name": "Showershade",
            "coordinates": {
                "longitude": -97.706601,
                "latitude": 30.186917
            },
            "address": {
                "street_address": "4800 Shaw Ln",
                "city": "Austin",
                "region": "TX"
            },
            "artist": "Chris  Doyle",
            "material": "Steel, Concrete, Showers, Fans",
            "dates": {
                "installed": {
                    "date_string": "2010-01-01T00:00:00.000"
                }
            }
        },
        {
            "name": "56- (Fifty-six Inches)",
            "coordinates": {
                "longitude": -97.767602,
                "latitude": 30.298241000000004
            },
            "address": {
                "street_address": "2500 Exposition Blvd",
                "city": "Austin",
                "region": "TX"
            },
            "artist": "Sandra  Fiedorek,  David  Heymann",
            "material": "Mixed Media",
            "dates": {
                "installed": {
                    "date_string": "1996-01-01T00:00:00.000"
                }
            }
        },
        {
            "name": "The Children are the Future",
            "coordinates": {
                "longitude": -97.721191,
                "latitude": 30.251037000000004
            },
            "address": {
                "street_address": "2400 Holly St",
                "city": "Austin",
                "region": "TX"
            },
            "artist": "Alfredo (Skam)  Martinez",
            "material": "Acrylic Paint",
            "dates": {
                "installed": {
                    "date_string": "1991-01-01T00:00:00.000"
                }
            }
        },
        {
            "name": "Philosophers' Rock",
            "coordinates": {
                "longitude": -97.77073800000001,
                "latitude": 30.264214000000003
            },
            "address": {
                "street_address": "2131 William Barton Dr.",
                "city": "Austin",
                "region": "TX"
            },
            "artist": "Glenna  Goodacre",
            "material": "Bronze",
            "dates": {
                "installed": {
                    "date_string": "1994-01-01T00:00:00.000"
                }
            }
        },
        {
            "name": "View from the Mayor's Window",
            "coordinates": {
                "longitude": -97.74719,
                "latitude": 30.264960000000002
            },
            "address": {
                "street_address": "301 W Second St",
                "city": "Austin",
                "region": "TX"
            },
            "artist": "Martha  Gannon",
            "material": "Metallic Prints, Stainless Steel, Plexiglas",
            "dates": {
                "installed": {
                    "date_string": "2005-01-01T00:00:00.000"
                }
            }
        },
        {
            "name": "O. Henry at Cards",
            "coordinates": {
                "longitude": -97.73913900000001,
                "latitude": 30.265758
            },
            "address": {
                "street_address": "409 E Fifth St",
                "city": "Austin",
                "region": "TX"
            },
            "artist": "John Patrick Cobb",
            "material": "Pencil, Sumi Ink, Air Brush, Colored Varnish And White Enamel On Board; Cradled And Varnished With Matte Damar.",
            "dates": {
                "installed": {
                    "date_string": "1993-01-01T00:00:00.000"
                }
            }
        },
        {
            "name": "Black Well",
            "coordinates": {
                "longitude": -97.762381,
                "latitude": 30.248697000000003
            },
            "address": {
                "street_address": "1800 S Fifth Street",
                "city": "Austin",
                "region": "TX"
            },
            "artist": "Stephanie  Strange",
            "material": "Mild Steel, Typewriter Keys",
            "dates": {
                "installed": {
                    "date_string": "2010-01-01T00:00:00.000"
                }
            }
        },
        {
            "name": "Blackland",
            "coordinates": {
                "longitude": -97.72371100000001,
                "latitude": 30.269968000000002
            },
            "address": {
                "street_address": "1165 Angelina St",
                "city": "Austin",
                "region": "TX"
            },
            "artist": "Jerry  Defrese",
            "material": "Galvanized Steel",
            "dates": {
                "installed": {
                    "date_string": "1983-01-01T00:00:00.000"
                }
            }
        },
        {
            "name": "Magnetic Column",
            "coordinates": {
                "longitude": -97.708788,
                "latitude": 30.219972000000002
            },
            "address": {
                "street_address": "2500 Montopolis Dr",
                "city": "Austin",
                "region": "TX"
            },
            "artist": "Ned  Kahn",
            "material": "Carbon Steel, Tempered Glass, Neodymium Magnets, Magnetite Sand, Black Nylon Bushings",
            "dates": {
                "installed": {
                    "date_string": "2012-01-01T00:00:00.000"
                }
            }
        },
        {
            "name": "Texas Botanicals",
            "coordinates": {
                "longitude": -97.74022500000001,
                "latitude": 30.264007000000003
            },
            "address": {
                "street_address": "500 E Cesar Chavez St",
                "city": "Austin",
                "region": "TX"
            },
            "artist": "Jill  Bedgood",
            "material": "Oil On Canvas",
            "dates": {
                "installed": {
                    "date_string": "1998-01-01T00:00:00.000"
                }
            }
        },
        {
            "name": "Brazos Sound Project #3",
            "coordinates": {
                "longitude": -97.74276400000001,
                "latitude": 30.264566000000002
            },
            "address": {
                "street_address": "Brazos and 3rd Street, west side",
                "city": "Austin",
                "region": "TX"
            },
            "artist": "Sodalitas Art Group",
            "material": "Powder Coated Steel With Electronic Audio Components",
            "dates": {
                "installed": {
                    "date_string": "2016-01-01T00:00:00.000"
                }
            }
        },
        {
            "name": "Musician",
            "coordinates": {
                "longitude": -97.66698000000001,
                "latitude": 30.202080000000002
            },
            "address": {
                "street_address": "3600 Presidential Blvd",
                "city": "Austin",
                "region": "TX"
            },
            "artist": "Howard  Weliver",
            "material": "Enamel On Fiberglass",
            "dates": {
                "installed": {
                    "date_string": "2006-01-01T00:00:00.000"
                }
            }
        },
        {
            "name": "The Visit",
            "coordinates": {
                "longitude": -97.66791,
                "latitude": 30.202400000000004
            },
            "address": {
                "street_address": "3600 Presidential Blvd",
                "city": "Austin",
                "region": "TX"
            },
            "artist": "Fidencio  Duran",
            "material": "9 Acrylic On Canvas Panels",
            "dates": {
                "installed": {
                    "date_string": "1999-01-01T00:00:00.000"
                }
            }
        },
        {
            "name": "Creativity and Culture: A Celebration / Creatividad y Cultura: Una Celebración",
            "coordinates": {
                "longitude": -97.714808,
                "latitude": 30.261069000000003
            },
            "address": {
                "street_address": "E 7th St at Northwestern",
                "city": "Austin",
                "region": "TX"
            },
            "artist": "Werllayne Nunes",
            "material": "Mineral Paint On Cement Board, Mounted To Steel Frame",
            "dates": {
                "installed": {
                    "date_string": "2014-01-01T00:00:00.000"
                }
            }
        },
        {
            "name": "Pedestrian Geometries #11",
            "coordinates": {
                "longitude": -97.743363,
                "latitude": 30.265220000000003
            },
            "address": {
                "street_address": "301 Brazos St",
                "city": "Austin",
                "region": "TX"
            },
            "artist": "Erin  Curtis",
            "material": "Elgin-Butler Glazed Brick, Mortar, Grout",
            "dates": {
                "installed": {
                    "date_string": "2013-01-01T00:00:00.000"
                }
            }
        },
        {
            "name": "Untitled",
            "coordinates": {
                "longitude": -97.742281,
                "latitude": 30.187321
            },
            "address": {
                "street_address": "5803 Nuckols Crossing Rd",
                "city": "Austin",
                "region": "TX"
            },
            "artist": "Claudia  Reese",
            "material": "Handpainted Ceramic Tiles Integrated Into The Building",
            "dates": {
                "installed": {
                    "date_string": "1998-01-01T00:00:00.000"
                }
            }
        },
        {
            "name": "Array #7",
            "coordinates": {
                "longitude": -97.75130800000001,
                "latitude": 30.266364000000003
            },
            "address": {
                "street_address": "W 2nd Street Extension",
                "city": "Austin",
                "region": "TX"
            },
            "artist": "Judd Graham",
            "material": "Mild Steel",
            "dates": {
                "installed": {
                    "date_string": "2017-01-01T00:00:00.000"
                }
            }
        },
        {
            "name": "Manana Street Bridge",
            "coordinates": {
                "longitude": -97.83212900000001,
                "latitude": 30.326598
            },
            "address": {
                "street_address": "1809 Manana Street (at Turkey Creek)",
                "city": "Austin",
                "region": "TX"
            },
            "artist": "Manana Street Neighbors",
            "material": "Ceramic Tiles",
            "dates": {
                "installed": {
                    "date_string": "2011-01-01T00:00:00.000"
                }
            }
        },
        {
            "name": "Padre Nuestro",
            "coordinates": {
                "longitude": -97.66992,
                "latitude": 30.211600000000004
            },
            "address": {
                "street_address": "2800 Spirit of Texas Dr",
                "city": "Austin",
                "region": "TX"
            },
            "artist": "Leticia Huerta",
            "material": "Serigraph",
            "dates": {
                "installed": {
                    "date_string": "1996-01-01T00:00:00.000"
                }
            }
        },
        {
            "name": "Pedestrian Geometries #22",
            "coordinates": {
                "longitude": -97.740759,
                "latitude": 30.263994000000004
            },
            "address": {
                "street_address": "301 Brazos St",
                "city": "Austin",
                "region": "TX"
            },
            "artist": "Erin  Curtis",
            "material": "Elgin-Butler Glazed Brick, Mortar, Grout",
            "dates": {
                "installed": {
                    "date_string": "2013-01-01T00:00:00.000"
                }
            }
        },
        {
            "name": "Austin Downtown Cruiser (Night)",
            "coordinates": {
                "longitude": -97.66554000000001,
                "latitude": 30.202070000000003
            },
            "address": {
                "street_address": "3600 Presidential Blvd",
                "city": "Austin",
                "region": "TX"
            },
            "artist": "Young-Min Kang",
            "material": "Digital Prints On Shaped Aluminum Composite, Steel, Wood",
            "dates": {
                "installed": {
                    "date_string": "2009-01-01T00:00:00.000"
                }
            }
        },
        {
            "name": "Brazos Sound Project #2",
            "coordinates": {
                "longitude": -97.74303,
                "latitude": 30.264240000000004
            },
            "address": {
                "street_address": "Brazos south of 2nd Street, west side",
                "city": "Austin",
                "region": "TX"
            },
            "artist": "Sodalitas Art Group",
            "material": "Powder Coated Steel With Electronic Audio Components",
            "dates": {
                "installed": {
                    "date_string": "2016-01-01T00:00:00.000"
                }
            }
        },
        {
            "name": "Transition",
            "coordinates": {
                "longitude": -97.66738000000001,
                "latitude": 30.203020000000002
            },
            "address": {
                "street_address": "3600 Presidential Blvd",
                "city": "Austin",
                "region": "TX"
            },
            "artist": "James  Talbot",
            "material": "Ceramic, Stone, Colored Mirror, Glass",
            "dates": {
                "installed": {
                    "date_string": "2006-01-01T00:00:00.000"
                }
            }
        },
        {
            "name": "Turtle Plaza/Plaza de las Tortugas",
            "coordinates": {
                "longitude": -97.701373,
                "latitude": 30.243525
            },
            "address": {
                "street_address": "400 Grove Blvd",
                "city": "Austin",
                "region": "TX"
            },
            "artist": "John  Christensen",
            "material": "Concrete",
            "dates": {
                "installed": {
                    "date_string": "2012-01-01T00:00:00.000"
                }
            }
        },
        {
            "name": "Community Quilt",
            "coordinates": {
                "longitude": -97.78459600000001,
                "latitude": 30.233339000000004
            },
            "address": {
                "street_address": "3911 Manchaca Rd",
                "city": "Austin",
                "region": "TX"
            },
            "artist": "Jill  Bedgood,  Steve  Wiman",
            "material": "Broken China And Tile Mosaics",
            "dates": {
                "installed": {
                    "date_string": "1995-01-01T00:00:00.000"
                }
            }
        },
        {
            "name": "Index For Contemplation",
            "coordinates": {
                "longitude": -97.73970200000001,
                "latitude": 30.263713000000003
            },
            "address": {
                "street_address": "500 E Cesar Chavez St",
                "city": "Austin",
                "region": "TX"
            },
            "artist": "Margo  Sawyer",
            "material": "Powder-coated Metal",
            "dates": {
                "installed": {
                    "date_string": "2002-01-01T00:00:00.000"
                }
            }
        },
        {
            "name": "Time Lines",
            "coordinates": {
                "longitude": -97.66590400000001,
                "latitude": 30.202211000000002
            },
            "address": {
                "street_address": "3600 Presidential Blvd",
                "city": "Austin",
                "region": "TX"
            },
            "artist": "Mikyoung  Kim",
            "material": "Digital Prints On Acrylic 20 LPI Lenticular Lens Mounted On Dibond Backing",
            "dates": {
                "installed": {
                    "date_string": "2014-01-01T00:00:00.000"
                }
            }
        },
        {
            "name": "Phantom Ship",
            "coordinates": {
                "longitude": -97.769253,
                "latitude": 30.264663000000002
            },
            "address": {
                "street_address": "2100 Barton Springs Rd",
                "city": "Austin",
                "region": "TX"
            },
            "artist": "Jill  Bedgood",
            "material": "Cast Concrete Retaining Walls",
            "dates": {
                "installed": {
                    "date_string": "1991-01-01T00:00:00.000"
                }
            }
        },
        {
            "name": "Station 27",
            "coordinates": {
                "longitude": -97.853569,
                "latitude": 30.228031
            },
            "address": {
                "street_address": "5401 McCarty Ln",
                "city": "Austin",
                "region": "TX"
            },
            "artist": "Rachel Wolfson Smith",
            "material": "graphite on paper",
            "dates": {
                "installed": {
                    "date_string": "2017-01-01T00:00:00.000"
                }
            }
        },
        {
            "name": "Belting It Out",
            "coordinates": {
                "longitude": -97.732405,
                "latitude": 30.248412000000002
            },
            "address": {
                "street_address": "Town Lake Boardwalk Trail",
                "city": "Austin",
                "region": "TX"
            },
            "artist": "Ken  Little",
            "material": "Bronze",
            "dates": {
                "installed": {
                    "date_string": "2014-01-01T00:00:00.000"
                }
            }
        },
        {
            "name": "Crystalline #1",
            "coordinates": {
                "longitude": -97.745115,
                "latitude": 30.266031
            },
            "address": {
                "street_address": "Colorado Street",
                "city": "Austin",
                "region": "TX"
            },
            "artist": "Dharmesh  Patel,  Autumn J.  Ewalt",
            "material": "Stainless Steel",
            "dates": {
                "installed": {
                    "date_string": "2013-01-01T00:00:00.000"
                }
            }
        },
        {
            "name": "Array #2",
            "coordinates": {
                "longitude": -97.751859,
                "latitude": 30.266432000000002
            },
            "address": {
                "street_address": "W 2nd Street Extension",
                "city": "Austin",
                "region": "TX"
            },
            "artist": "Judd Graham",
            "material": "Mild Steel",
            "dates": {
                "installed": {
                    "date_string": "2017-01-01T00:00:00.000"
                }
            }
        },
        {
            "name": "Cardinal Points: North-South-East-West",
            "coordinates": {
                "longitude": -97.71720400000001,
                "latitude": 30.261434
            },
            "address": {
                "street_address": "E 7th and Webberville Rd",
                "city": "Austin",
                "region": "TX"
            },
            "artist": "Susan  Wallace",
            "material": "Powder Coated Aluminum And Stainless Steel",
            "dates": {
                "installed": {
                    "date_string": "2011-01-01T00:00:00.000"
                }
            }
        },
        {
            "name": "Voyage to Soulsville (Sesquicentennial Mural)",
            "coordinates": {
                "longitude": -97.724074,
                "latitude": 30.269540000000003
            },
            "address": {
                "street_address": "1161 Angelina St",
                "city": "Austin",
                "region": "TX"
            },
            "artist": "John  Fisher",
            "material": "Acrylic Paint",
            "dates": {
                "installed": {
                    "date_string": "1986-01-01T00:00:00.000"
                }
            }
        },
        {
            "name": "Lotus",
            "coordinates": {
                "longitude": -97.68063500000001,
                "latitude": 30.339817
            },
            "address": {
                "street_address": "8401 Cameron Rd",
                "city": "Austin",
                "region": "TX"
            },
            "artist": "Sunyong  Chung,  Philippe  Klinefelter",
            "material": "Granite, Hand-made Ceramic Tiles",
            "dates": {
                "installed": {
                    "date_string": "2013-01-01T00:00:00.000"
                }
            }
        },
        {
            "name": "Brazos Sound Project #7",
            "coordinates": {
                "longitude": -97.74119,
                "latitude": 30.26827
            },
            "address": {
                "street_address": "Brazos centered between 6th and 7th Streets, east side",
                "city": "Austin",
                "region": "TX"
            },
            "artist": "Sodalitas Art Group",
            "material": "Powder Coated Steel With Electronic Audio Components",
            "dates": {
                "installed": {
                    "date_string": "2016-01-01T00:00:00.000"
                }
            }
        },
        {
            "name": "Pedestrian Geometries #12",
            "coordinates": {
                "longitude": -97.74604000000001,
                "latitude": 30.265835000000003
            },
            "address": {
                "street_address": "301 Brazos St",
                "city": "Austin",
                "region": "TX"
            },
            "artist": "Erin  Curtis",
            "material": "Elgin-Butler Glazed Brick, Mortar, Grout",
            "dates": {
                "installed": {
                    "date_string": "2013-01-01T00:00:00.000"
                }
            }
        },
        {
            "name": "Discovery",
            "coordinates": {
                "longitude": -97.70701100000001,
                "latitude": 30.229862000000004
            },
            "address": {
                "street_address": "1600 Grove Blvd",
                "city": "Austin",
                "region": "TX"
            },
            "artist": "Will  Larson",
            "material": "Metal And Limestone",
            "dates": {
                "installed": {
                    "date_string": "2002-01-01T00:00:00.000"
                }
            }
        },
        {
            "name": "Mountain Laurel Mandala II",
            "coordinates": {
                "longitude": -97.7469559997,
                "latitude": 30.264820000100002
            },
            "address": {
                "street_address": "301 W Second St",
                "city": "Austin",
                "region": "TX"
            },
            "artist": "Shalena White",
            "material": "Texas Mountain Laurel Seeds, Sewing Pins",
            "dates": {
                "installed": {
                    "date_string": "2014-01-01T00:00:00.000"
                }
            }
        },
        {
            "name": "Pedestrian Geometries #1B",
            "coordinates": {
                "longitude": -97.741718,
                "latitude": 30.264750000000003
            },
            "address": {
                "street_address": "301 Brazos St",
                "city": "Austin",
                "region": "TX"
            },
            "artist": "Erin  Curtis",
            "material": "Elgin-Butler Glazed Brick, Mortar, Grout",
            "dates": {
                "installed": {
                    "date_string": "2013-01-01T00:00:00.000"
                }
            }
        },
        {
            "name": "Our Hands / Nuestras Manos",
            "coordinates": {
                "longitude": -97.726108,
                "latitude": 30.263956000000004
            },
            "address": {
                "street_address": "E 7th and Comal St",
                "city": "Austin",
                "region": "TX"
            },
            "artist": "Ben  Appl",
            "material": "Aluminum With Dye Oxides",
            "dates": {
                "installed": {
                    "date_string": "2011-01-01T00:00:00.000"
                }
            }
        },
        {
            "name": "Hidden Canyon",
            "coordinates": {
                "longitude": -97.74222,
                "latitude": 30.263800000000003
            },
            "address": {
                "street_address": "201 E 2nd St",
                "city": "Austin",
                "region": "TX"
            },
            "artist": "Wanda  Gamble",
            "material": "Oil On Canvas",
            "dates": {
                "installed": {
                    "date_string": "1993-01-01T00:00:00.000"
                }
            }
        },
        {
            "name": "Rayo de Esperanza / A Beacon of Hope: Cesar E. Chavez Memorial Sculpture, Community Kiosk, Benches",
            "coordinates": {
                "longitude": -97.733761,
                "latitude": 30.260183
            },
            "address": {
                "street_address": "1105 E Cesar Chavez St",
                "city": "Austin",
                "region": "TX"
            },
            "artist": "Connie  Arismendi,  Laura  Garanzuay",
            "material": "Aqua Jet Cut Aluminum, Steel, Three Celebratory Lighting Programs",
            "dates": {
                "installed": {
                    "date_string": "2009-01-01T00:00:00.000"
                }
            }
        },
        {
            "name": "The Prophesy of Peace",
            "coordinates": {
                "longitude": -97.74714,
                "latitude": 30.264920000000004
            },
            "address": {
                "street_address": "301 W Second St",
                "city": "Austin",
                "region": "TX"
            },
            "artist": "Geoffrey  Graham",
            "material": "Serigraph",
            "dates": {
                "installed": {
                    "date_string": "1986-01-01T00:00:00.000"
                }
            }
        },
        {
            "name": "Cypress Grove",
            "coordinates": {
                "longitude": -97.743987,
                "latitude": 30.264309000000004
            },
            "address": {
                "street_address": "W Second St",
                "city": "Austin",
                "region": "TX"
            },
            "artist": "Stanley Studio  ",
            "material": "Stainless Steel, Concrete, Limestone, Drinking Fountain",
            "dates": {
                "installed": {
                    "date_string": "2015-01-01T00:00:00.000"
                }
            }
        },
        {
            "name": "Riffs and Rhythms",
            "coordinates": {
                "longitude": -97.740646,
                "latitude": 30.263956000000004
            },
            "address": {
                "street_address": "500 E Cesar Chavez St",
                "city": "Austin",
                "region": "TX"
            },
            "artist": "John  Yancey",
            "material": "Broken Tile Mosaic",
            "dates": {
                "installed": {
                    "date_string": "1996-01-01T00:00:00.000"
                }
            }
        },
        {
            "name": "Crystalline #6",
            "coordinates": {
                "longitude": -97.745523,
                "latitude": 30.264939000000002
            },
            "address": {
                "street_address": "Colorado Street and 2nd Street",
                "city": "Austin",
                "region": "TX"
            },
            "artist": "Dharmesh  Patel,  Autumn J.  Ewalt",
            "material": "Stainless Steel",
            "dates": {
                "installed": {
                    "date_string": "2017-01-01T00:00:00.000"
                }
            }
        },
        {
            "name": "Sign of the Times",
            "coordinates": {
                "longitude": -97.71962,
                "latitude": 30.251200000000004
            },
            "address": {
                "street_address": "2400 Holly St",
                "city": "Austin",
                "region": "TX"
            },
            "artist": "Armando (Tanner)  Martinez",
            "material": "Acrylic Paint",
            "dates": {
                "installed": {
                    "date_string": "1991-01-01T00:00:00.000"
                }
            }
        },
        {
            "name": "Water Tower Bike Rack",
            "coordinates": {
                "longitude": -97.76423100000001,
                "latitude": 30.286894000000004
            },
            "address": {
                "street_address": "2000 Enfield Rd",
                "city": "Austin",
                "region": "TX"
            },
            "artist": "Alan  Knox",
            "material": "Painted Steel",
            "dates": {
                "installed": {
                    "date_string": "2014-01-01T00:00:00.000"
                }
            }
        },
        {
            "name": "Brazos Sound Project #1",
            "coordinates": {
                "longitude": -97.74318000000001,
                "latitude": 30.263250000000003
            },
            "address": {
                "street_address": "Brazos Street and Cesar Chavez, west side",
                "city": "Austin",
                "region": "TX"
            },
            "artist": "Sodalitas Art Group",
            "material": "Powder Coated Steel With Electronic Audio Components",
            "dates": {
                "installed": {
                    "date_string": "2016-01-01T00:00:00.000"
                }
            }
        },
        {
            "name": "Flow",
            "coordinates": {
                "longitude": -97.74776200000001,
                "latitude": 30.265400000000003
            },
            "address": {
                "street_address": "W Second St",
                "city": "Austin",
                "region": "TX"
            },
            "artist": "Laura  Garanzuay",
            "material": "Stainless Steel Hardware",
            "dates": {
                "installed": {
                    "date_string": "2015-01-01T00:00:00.000"
                }
            }
        },
        {
            "name": "Untitled (Gargoyles)",
            "coordinates": {
                "longitude": -97.758689,
                "latitude": 30.26403
            },
            "address": {
                "street_address": "1510 Toomey Rd",
                "city": "Austin",
                "region": "TX"
            },
            "artist": "Stephen  Ray",
            "material": "Fiberglass, Clay",
            "dates": {
                "installed": {
                    "date_string": "1990-01-01T00:00:00.000"
                }
            }
        },
        {
            "name": "The Family / La Familia",
            "coordinates": {
                "longitude": -97.713733,
                "latitude": 30.260907000000003
            },
            "address": {
                "street_address": "E 7th and Pedernales",
                "city": "Austin",
                "region": "TX"
            },
            "artist": "Alonso  Rey-Sanchez",
            "material": "Mineral Paint On Cement Board",
            "dates": {
                "installed": {
                    "date_string": "2011-01-01T00:00:00.000"
                }
            }
        },
        {
            "name": "Playmates",
            "coordinates": {
                "longitude": -97.75831654000001,
                "latitude": 30.267953470000002
            },
            "address": {
                "street_address": "1156 W Cesar Chavez St",
                "city": "Austin",
                "region": "TX"
            },
            "artist": "Dale  Whistler",
            "material": "Painted Aluminum",
            "dates": {
                "installed": {
                    "date_string": "1999-01-01T00:00:00.000"
                }
            }
        },
        {
            "name": "Fractal Tree",
            "coordinates": {
                "longitude": -97.750899,
                "latitude": 30.270527
            },
            "address": {
                "street_address": "800 W Sixth St",
                "city": "Austin",
                "region": "TX"
            },
            "artist": "Paul  Sorey",
            "material": "Stainless Steel",
            "dates": {
                "installed": {
                    "date_string": "2013-01-01T00:00:00.000"
                }
            }
        },
        {
            "name": "Willie Nunn",
            "coordinates": {
                "longitude": -97.760023,
                "latitude": 30.265305
            },
            "address": {
                "street_address": "200 S Lamar Dr",
                "city": "Austin",
                "region": "TX"
            },
            "artist": "George R. \"Bob\"  Brooking",
            "material": "Bronze",
            "dates": {
                "installed": {
                    "date_string": "1991-01-01T00:00:00.000"
                }
            }
        },
        {
            "name": "Leaf, Pod & Samara",
            "coordinates": {
                "longitude": -97.66748000000001,
                "latitude": 30.202240000000003
            },
            "address": {
                "street_address": "3600 Presidential Blvd",
                "city": "Austin",
                "region": "TX"
            },
            "artist": "John  Christensen",
            "material": "Cast Concrete",
            "dates": {
                "installed": {
                    "date_string": "1999-01-01T00:00:00.000"
                }
            }
        },
        {
            "name": "Pride",
            "coordinates": {
                "longitude": -97.689018,
                "latitude": 30.253828000000002
            },
            "address": {
                "street_address": "7201 Levander Loop",
                "city": "Austin",
                "region": "TX"
            },
            "artist": "Nan  Standish Blake",
            "material": "Giclée Print On Fujicolor Crystal Archive Paper",
            "dates": {
                "installed": {
                    "date_string": "2003-01-01T00:00:00.000"
                }
            }
        },
        {
            "name": "East Side Compass",
            "coordinates": {
                "longitude": -97.709473,
                "latitude": 30.260070000000002
            },
            "address": {
                "street_address": "E 7th and Pleasant Valley Rd",
                "city": "Austin",
                "region": "TX"
            },
            "artist": "Martin  Garcia",
            "material": "Cast Concrete, Stain",
            "dates": {
                "installed": {
                    "date_string": "2011-01-01T00:00:00.000"
                }
            }
        },
        {
            "name": "Crullers (Big Mama Baby - comprised of Big Mama Baby, Little Mama and Tall Solo)",
            "coordinates": {
                "longitude": -97.75155000000001,
                "latitude": 30.266464000000003
            },
            "address": {
                "street_address": "708-1/2 W 2nd St.",
                "city": "Austin",
                "region": "TX"
            },
            "artist": "Sharon  Engelstein",
            "material": "Pigmented Glass Fiber Reinforced Concrete Over Structural Foam And Steel Armature",
            "dates": {
                "installed": {
                    "date_string": "2016-01-01T00:00:00.000"
                }
            }
        },
        {
            "name": "Seeding Time",
            "coordinates": {
                "longitude": -97.747765,
                "latitude": 30.264554000000004
            },
            "address": {
                "street_address": "301 W Second St",
                "city": "Austin",
                "region": "TX"
            },
            "artist": "Nobuho  Nagasawa",
            "material": "Stones, Limestone, MeeFog Humidification System, Lights, Oak Tree",
            "dates": {
                "installed": {
                    "date_string": "2004-01-01T00:00:00.000"
                }
            }
        },
        {
            "name": "Spin",
            "coordinates": {
                "longitude": -97.751203,
                "latitude": 30.266177000000003
            },
            "address": {
                "street_address": "W 2nd Street Extension",
                "city": "Austin",
                "region": "TX"
            },
            "artist": "Judd Graham",
            "material": "Mild Steel",
            "dates": {
                "installed": {
                    "date_string": "2017-01-01T00:00:00.000"
                }
            }
        },
        {
            "name": "Metz Pool House Mural",
            "coordinates": {
                "longitude": -97.719154,
                "latitude": 30.252855000000004
            },
            "address": {
                "street_address": "2407 Canterbury St",
                "city": "Austin",
                "region": "TX"
            },
            "artist": "Armando (Tanner)  Martinez",
            "material": "Spray Paint, Airbrush",
            "dates": {
                "installed": {
                    "date_string": "1990-01-01T00:00:00.000"
                }
            }
        },
        {
            "name": "Pedestrian Geometries #3",
            "coordinates": {
                "longitude": -97.745456,
                "latitude": 30.265657000000004
            },
            "address": {
                "street_address": "301 Brazos St",
                "city": "Austin",
                "region": "TX"
            },
            "artist": "Erin  Curtis",
            "material": "Elgin-Butler Glazed Brick, Mortar, Grout",
            "dates": {
                "installed": {
                    "date_string": "2013-01-01T00:00:00.000"
                }
            }
        },
        {
            "name": "Golden Afternoon",
            "coordinates": {
                "longitude": -97.752855,
                "latitude": 30.267777000000002
            },
            "address": {
                "street_address": "211 Walter Seaholm Dr",
                "city": "Austin",
                "region": "TX"
            },
            "artist": "Urban Matter Inc.",
            "material": "Stainless Steel, Fiber Optic Cable, Light Emitting Diodes",
            "dates": {
                "installed": {
                    "date_string": "2016-01-01T00:00:00.000"
                }
            }
        },
        {
            "name": "La Quinceanera- 15th Birthday",
            "coordinates": {
                "longitude": -97.719286,
                "latitude": 30.251077000000002
            },
            "address": {
                "street_address": "2400 Holly St",
                "city": "Austin",
                "region": "TX"
            },
            "artist": "Fidencio  Duran",
            "material": "Acrylic Paint",
            "dates": {
                "installed": {
                    "date_string": "1992-01-01T00:00:00.000"
                }
            }
        },
        {
            "name": "The Unsung",
            "coordinates": {
                "longitude": -97.737986,
                "latitude": 30.211902000000002
            },
            "address": {
                "street_address": "4108 Todd Ln",
                "city": "Austin",
                "region": "TX"
            },
            "artist": "Doug  Brown",
            "material": "Acrylic Paint",
            "dates": {
                "installed": {
                    "date_string": "2001-01-01T00:00:00.000"
                }
            }
        },
        {
            "name": "Reality * Texas * Mythology",
            "coordinates": {
                "longitude": -97.66788700000001,
                "latitude": 30.202077000000003
            },
            "address": {
                "street_address": "3600 Presidential Blvd",
                "city": "Austin",
                "region": "TX"
            },
            "artist": "Jill  Bedgood",
            "material": "Etched Glass, Etched Metal Medallions",
            "dates": {
                "installed": {
                    "date_string": "1999-01-01T00:00:00.000"
                }
            }
        },
        {
            "name": "Untitled {Utility Box Cover 2)",
            "coordinates": {
                "longitude": -97.74813400000001,
                "latitude": 30.264208000000004
            },
            "address": {
                "street_address": "Cesar Chavez at S First St",
                "city": "Austin",
                "region": "TX"
            },
            "artist": "Deborah  Mersky",
            "material": "Cut Aluminum Panels",
            "dates": {
                "installed": {
                    "date_string": "2009-01-01T00:00:00.000"
                }
            }
        },
        {
            "name": "Lady Bird Lake: Morning",
            "coordinates": {
                "longitude": -97.74729,
                "latitude": 30.26479
            },
            "address": {
                "street_address": "301 W Second St",
                "city": "Austin",
                "region": "TX"
            },
            "artist": "Jim  Beckett",
            "material": "Archival Inkjet Print",
            "dates": {
                "installed": {
                    "date_string": "2011-01-01T00:00:00.000"
                }
            }
        },
        {
            "name": "Untitled",
            "coordinates": {
                "longitude": -97.720279,
                "latitude": 30.251328000000004
            },
            "address": {
                "street_address": "2400 Holly St",
                "city": "Austin",
                "region": "TX"
            },
            "artist": "Arlene  Polite",
            "material": "Acrylic Paint",
            "dates": {
                "installed": {
                    "date_string": "1992-01-01T00:00:00.000"
                }
            }
        },
        {
            "name": "Reflect and Resound",
            "coordinates": {
                "longitude": -97.66878700000001,
                "latitude": 30.28318
            },
            "address": {
                "street_address": "4523 Tannehill Lane",
                "city": "Austin",
                "region": "TX"
            },
            "artist": "Virginia  Fleck",
            "material": "Aluminum, Steel, Paint",
            "dates": {
                "installed": {
                    "date_string": "2017-01-01T00:00:00.000"
                }
            }
        },
        {
            "name": "A Day in the Park",
            "coordinates": {
                "longitude": -97.727335,
                "latitude": 30.307424
            },
            "address": {
                "street_address": "4400 Ave G",
                "city": "Austin",
                "region": "TX"
            },
            "artist": "Holli  Brown,  Pascal  Simon",
            "material": "Handmade Ceramic Tiles, Glass Tiles",
            "dates": {
                "installed": {
                    "date_string": "2013-01-01T00:00:00.000"
                }
            }
        },
        {
            "name": "The Collector Revisited",
            "coordinates": {
                "longitude": -97.66992,
                "latitude": 30.211600000000004
            },
            "address": {
                "street_address": "2800 Spirit of Texas Dr",
                "city": "Austin",
                "region": "TX"
            },
            "artist": "Kelly  Fearing",
            "material": "Photogravure",
            "dates": {
                "installed": {
                    "date_string": "1997-01-01T00:00:00.000"
                }
            }
        },
        {
            "name": "She is Alive!",
            "coordinates": {
                "longitude": -97.72401500000001,
                "latitude": 30.269979000000003
            },
            "address": {
                "street_address": "1165 Angelina St",
                "city": "Austin",
                "region": "TX"
            },
            "artist": "Jerald Don Evans",
            "material": "Bronze, Granite",
            "dates": {
                "installed": {
                    "date_string": "2011-01-01T00:00:00.000"
                }
            }
        },
        {
            "name": "Cyclical Interplay",
            "coordinates": {
                "longitude": -97.749049,
                "latitude": 30.260664000000002
            },
            "address": {
                "street_address": "800 W Riverside Dr",
                "city": "Austin",
                "region": "TX"
            },
            "artist": "Andrew Bellatti Green,  Adam  Pyrek",
            "material": "Waterjet Cut Steel, Cast Concrete, Telemetry Components, Gears",
            "dates": {
                "installed": {
                    "date_string": "2014-01-01T00:00:00.000"
                }
            }
        },
        {
            "name": "Oak Hill Triptych",
            "coordinates": {
                "longitude": -97.85505900000001,
                "latitude": 30.217637000000003
            },
            "address": {
                "street_address": "5125 Convict Hill Rd",
                "city": "Austin",
                "region": "TX"
            },
            "artist": "David  Everett",
            "material": "Painted Mahogany Relief Carvings",
            "dates": {
                "installed": {
                    "date_string": "1997-01-01T00:00:00.000"
                }
            }
        },
        {
            "name": "Blue",
            "coordinates": {
                "longitude": -97.74681,
                "latitude": 30.264900000000004
            },
            "address": {
                "street_address": "301 W Second St",
                "city": "Austin",
                "region": "TX"
            },
            "artist": "Vy Ngo",
            "material": "Oil, Acrylic On Canvas",
            "dates": {
                "installed": {
                    "date_string": "2017-01-01T00:00:00.000"
                }
            }
        },
        {
            "name": "Nightwing",
            "coordinates": {
                "longitude": -97.746412,
                "latitude": 30.259365000000003
            },
            "address": {
                "street_address": "100 1/2 Barton Springs Rd.",
                "city": "Austin",
                "region": "TX"
            },
            "artist": "Dale  Whistler",
            "material": "Painted Aluminum, Concrete, Steel",
            "dates": {
                "installed": {
                    "date_string": "1998-01-01T00:00:00.000"
                }
            }
        },
        {
            "name": "Station 7",
            "coordinates": {
                "longitude": -97.724006,
                "latitude": 30.258382
            },
            "address": {
                "street_address": "201 Chicon St",
                "city": "Austin",
                "region": "TX"
            },
            "artist": "Rachel Wolfson Smith",
            "material": "graphite on paper",
            "dates": {
                "installed": {
                    "date_string": "2017-01-01T00:00:00.000"
                }
            }
        },
        {
            "name": "Pods",
            "coordinates": {
                "longitude": -97.701099,
                "latitude": 30.229111000000003
            },
            "address": {
                "street_address": "1416 Montopolis Dr",
                "city": "Austin",
                "region": "TX"
            },
            "artist": "Amy Bunker,  Travis Seeger,  Foster Talge",
            "material": "Stainless And Mild Steel, Cedar, Decomposed Granite Landscaping",
            "dates": {
                "installed": {
                    "date_string": "2016-01-01T00:00:00.000"
                }
            }
        },
        {
            "name": "Grotto Wall at Sparky Park",
            "coordinates": {
                "longitude": -97.73219300000001,
                "latitude": 30.299035000000003
            },
            "address": {
                "street_address": "3701 Grooms St",
                "city": "Austin",
                "region": "TX"
            },
            "artist": "Berthold  Haas",
            "material": "Karst Stone, Steel, Mirror Balls, Various Stone, Aggregates, Masonry, Petrified Wood, Fossils, Seashells, Ceramic, Found Objects",
            "dates": {
                "installed": {
                    "date_string": "2008-01-01T00:00:00.000"
                }
            }
        },
        {
            "name": "Jose Maria Morelos y Pavon",
            "coordinates": {
                "longitude": -97.747648,
                "latitude": 30.267803000000004
            },
            "address": {
                "street_address": "422 Guadalupe St",
                "city": "Austin",
                "region": "TX"
            },
            "artist": "Juan Antonio  Lugo Villegas",
            "material": "Bronze, Cast Cement Pedestal",
            "dates": {
                "installed": {
                    "date_string": "2003-01-01T00:00:00.000"
                }
            }
        },
        {
            "name": "Pedestrian Geometries #25",
            "coordinates": {
                "longitude": -97.744832,
                "latitude": 30.265596000000002
            },
            "address": {
                "street_address": "301 Brazos St",
                "city": "Austin",
                "region": "TX"
            },
            "artist": "Erin  Curtis",
            "material": "Elgin-Butler Glazed Brick, Mortar, Grout",
            "dates": {
                "installed": {
                    "date_string": "2013-01-01T00:00:00.000"
                }
            }
        },
        {
            "name": "Lou Neff Point Gazebo",
            "coordinates": {
                "longitude": -97.76169,
                "latitude": 30.267254
            },
            "address": {
                "street_address": "2100 Lou Neff Rd",
                "city": "Austin",
                "region": "TX"
            },
            "artist": "The Austin Group",
            "material": "Round Steel Tubing, Iron",
            "dates": {
                "installed": {
                    "date_string": "1993-01-01T00:00:00.000"
                }
            }
        },
        {
            "name": "Brazos Sound Project #6",
            "coordinates": {
                "longitude": -97.741726,
                "latitude": 30.267078
            },
            "address": {
                "street_address": "Brazos south of 7th Street, west side",
                "city": "Austin",
                "region": "TX"
            },
            "artist": "Sodalitas Art Group",
            "material": "Powder Coated Steel With Electronic Audio Components",
            "dates": {
                "installed": {
                    "date_string": "2016-01-01T00:00:00.000"
                }
            }
        },
        {
            "name": "Cow River",
            "coordinates": {
                "longitude": -97.74670400000001,
                "latitude": 30.265093000000004
            },
            "address": {
                "street_address": "310 W 2nd St",
                "city": "Austin",
                "region": "TX"
            },
            "artist": "Sadi  Brewton,  Jonathan  Davies",
            "material": "Solar Lights (19) Inscribed With Town Names, Saw Cut Lines In Existing Concrete",
            "dates": {
                "installed": {
                    "date_string": "2014-01-01T00:00:00.000"
                }
            }
        },
        {
            "name": "Untitled",
            "coordinates": {
                "longitude": -97.862806,
                "latitude": 30.213121000000005
            },
            "address": {
                "street_address": "8011 Beckett Rd",
                "city": "Austin",
                "region": "TX"
            },
            "artist": "Dale  Whistler",
            "material": "Stained Concrete Sidewalk Mural",
            "dates": {
                "installed": {
                    "date_string": "1994-01-01T00:00:00.000"
                }
            }
        },
        {
            "name": "Array #8",
            "coordinates": {
                "longitude": -97.751182,
                "latitude": 30.266444000000003
            },
            "address": {
                "street_address": "W 2nd Street Extension",
                "city": "Austin",
                "region": "TX"
            },
            "artist": "Judd Graham",
            "material": "Mild Steel",
            "dates": {
                "installed": {
                    "date_string": "2017-01-01T00:00:00.000"
                }
            }
        },
        {
            "name": "To Parts Unknown",
            "coordinates": {
                "longitude": -97.66698000000001,
                "latitude": 30.202080000000002
            },
            "address": {
                "street_address": "3600 Presidential Blvd",
                "city": "Austin",
                "region": "TX"
            },
            "artist": "Sandra  Fiedorek",
            "material": "Tarmac Paint And Glass Beads On Wood Panels",
            "dates": {
                "installed": {
                    "date_string": "1999-01-01T00:00:00.000"
                }
            }
        },
        {
            "name": "Paz en El Barrio/Me Barrio",
            "coordinates": {
                "longitude": -97.71866200000001,
                "latitude": 30.250904000000002
            },
            "address": {
                "street_address": "2400 Holly St",
                "city": "Austin",
                "region": "TX"
            },
            "artist": "Armando (Tanner)  Martinez",
            "material": "Acrylic Paint",
            "dates": {
                "installed": {
                    "date_string": "1991-01-01T00:00:00.000"
                }
            }
        },
        {
            "name": "Fire in the Heart",
            "coordinates": {
                "longitude": -97.770849,
                "latitude": 30.224806000000005
            },
            "address": {
                "street_address": "4123 S First St",
                "city": "Austin",
                "region": "TX"
            },
            "artist": "Lars  Stanley",
            "material": "Steel Gate, Pillars And Light Sconces",
            "dates": {
                "installed": {
                    "date_string": "1990-01-01T00:00:00.000"
                }
            }
        },
        {
            "name": "Zilker Garden Main Entry Gate",
            "coordinates": {
                "longitude": -97.772358,
                "latitude": 30.268413000000002
            },
            "address": {
                "street_address": "2220 Barton Springs Rd",
                "city": "Austin",
                "region": "TX"
            },
            "artist": "Lars  Stanley,  Louis Jr  Herrera",
            "material": "Painted And Forged Mild Steel",
            "dates": {
                "installed": {
                    "date_string": "1995-01-01T00:00:00.000"
                }
            }
        },
        {
            "name": "Symbol Bowl",
            "coordinates": {
                "longitude": -97.74299,
                "latitude": 30.263610000000003
            },
            "address": {
                "street_address": "201 E 2nd St",
                "city": "Austin",
                "region": "TX"
            },
            "artist": "Damian  Priour",
            "material": "Limestone, Glass",
            "dates": {
                "installed": {
                    "date_string": "2004-01-01T00:00:00.000"
                }
            }
        },
        {
            "name": "Vicious Venue",
            "coordinates": {
                "longitude": -97.74664,
                "latitude": 30.26479
            },
            "address": {
                "street_address": "301 W Second St",
                "city": "Austin",
                "region": "TX"
            },
            "artist": "Shawn  Smith",
            "material": "Painted Balsa Wood, Found Objects (phone, Film Canisters, Film Rolls)",
            "dates": {
                "installed": {
                    "date_string": "2008-01-01T00:00:00.000"
                }
            }
        },
        {
            "name": "Brazos Sound Project #8",
            "coordinates": {
                "longitude": -97.742638,
                "latitude": 30.264526000000004
            },
            "address": {
                "street_address": "Brazos near 5th Street, east side",
                "city": "Austin",
                "region": "TX"
            },
            "artist": "Sodalitas Art Group",
            "material": "Powder Coated Steel With Electronic Audio Components",
            "dates": {
                "installed": {
                    "date_string": "2016-01-01T00:00:00.000"
                }
            }
        },
        {
            "name": "Dr. David Thomas Iglehart",
            "coordinates": {
                "longitude": -97.73499600000001,
                "latitude": 30.271352000000004
            },
            "address": {
                "street_address": "1101 Red River St",
                "city": "Austin",
                "region": "TX"
            },
            "artist": "Elisabet  Ney",
            "material": "Bronze, Limestone",
            "dates": {
                "installed": {
                    "date_string": "1903-01-01T00:00:00.000"
                }
            }
        },
        {
            "name": "Pedestrian Geometries #30",
            "coordinates": {
                "longitude": -97.74749800000001,
                "latitude": 30.266387
            },
            "address": {
                "street_address": "301 Brazos St",
                "city": "Austin",
                "region": "TX"
            },
            "artist": "Erin  Curtis",
            "material": "Elgin-Butler Glazed Brick, Mortar, Grout",
            "dates": {
                "installed": {
                    "date_string": "2013-01-01T00:00:00.000"
                }
            }
        },
        {
            "name": "Parque Zaragoza Murals",
            "coordinates": {
                "longitude": -97.711567,
                "latitude": 30.261743000000003
            },
            "address": {
                "street_address": "2608 Gonzales St",
                "city": "Austin",
                "region": "TX"
            },
            "artist": "Fidencio  Duran",
            "material": "Acrylic Paint",
            "dates": {
                "installed": {
                    "date_string": "1996-01-01T00:00:00.000"
                }
            }
        },
        {
            "name": "Pedestrian Geometries #16",
            "coordinates": {
                "longitude": -97.74602900000001,
                "latitude": 30.265831000000002
            },
            "address": {
                "street_address": "301 Brazos St",
                "city": "Austin",
                "region": "TX"
            },
            "artist": "Erin  Curtis",
            "material": "Elgin-Butler Glazed Brick, Mortar, Grout",
            "dates": {
                "installed": {
                    "date_string": "2013-01-01T00:00:00.000"
                }
            }
        },
        {
            "name": "Array #6",
            "coordinates": {
                "longitude": -97.751343,
                "latitude": 30.266384000000002
            },
            "address": {
                "street_address": "W 2nd Street Extension",
                "city": "Austin",
                "region": "TX"
            },
            "artist": "Judd Graham",
            "material": "Mild Steel",
            "dates": {
                "installed": {
                    "date_string": "2017-01-01T00:00:00.000"
                }
            }
        },
        {
            "name": "La Fuente en Calle Segunda / The Spring of Second Street",
            "coordinates": {
                "longitude": -97.74332,
                "latitude": 30.269920000000003
            },
            "address": {
                "street_address": "W Second St",
                "city": "Austin",
                "region": "TX"
            },
            "artist": "Roger  Colombik,  Jerolyn  Bahm-Colombik",
            "material": "Bronze, Aluminum",
            "dates": {
                "installed": {
                    "date_string": "2010-01-01T00:00:00.000"
                }
            }
        },
        {
            "name": "Birch Cascade",
            "coordinates": {
                "longitude": -97.74681,
                "latitude": 30.264900000000004
            },
            "address": {
                "street_address": "301 W Second St",
                "city": "Austin",
                "region": "TX"
            },
            "artist": "Caprice  Pierucci",
            "material": "Birch, Pine",
            "dates": {
                "installed": {
                    "date_string": "2009-01-01T00:00:00.000"
                }
            }
        },
        {
            "name": "Merlin the Magical Sage",
            "coordinates": {
                "longitude": -97.731071,
                "latitude": 30.290372
            },
            "address": {
                "street_address": "3001 Harris Park Ave",
                "city": "Austin",
                "region": "TX"
            },
            "artist": "David  Kestenbaum",
            "material": "Carved Tree Stump",
            "dates": {
                "installed": {
                    "date_string": "1991-01-01T00:00:00.000"
                }
            }
        },
        {
            "name": "Array #1",
            "coordinates": {
                "longitude": -97.75188200000001,
                "latitude": 30.266444000000003
            },
            "address": {
                "street_address": "W 2nd Street Extension",
                "city": "Austin",
                "region": "TX"
            },
            "artist": "Judd Graham",
            "material": "Mild Steel",
            "dates": {
                "installed": {
                    "date_string": "2017-01-01T00:00:00.000"
                }
            }
        },
        {
            "name": "Crystalline #2",
            "coordinates": {
                "longitude": -97.744676,
                "latitude": 30.266748000000003
            },
            "address": {
                "street_address": "Colorado Street",
                "city": "Austin",
                "region": "TX"
            },
            "artist": "Dharmesh  Patel,  Autumn J.  Ewalt",
            "material": "Stainless Steel",
            "dates": {
                "installed": {
                    "date_string": "2013-01-01T00:00:00.000"
                }
            }
        },
        {
            "name": "Overton-Turner-Roberts Memorial",
            "coordinates": {
                "longitude": -97.636701,
                "latitude": 30.300187
            },
            "address": {
                "street_address": "7201 Colony Loop Drive",
                "city": "Austin",
                "region": "TX"
            },
            "artist": "John  Christensen",
            "material": "Bronze, Glass Mosaic, Concrete",
            "dates": {
                "installed": {
                    "date_string": "2008-01-01T00:00:00.000"
                }
            }
        },
        {
            "name": "Voyages",
            "coordinates": {
                "longitude": -97.66799,
                "latitude": 30.20229
            },
            "address": {
                "street_address": "3600 Presidential Blvd",
                "city": "Austin",
                "region": "TX"
            },
            "artist": "Judy  Jensen",
            "material": "6 Mixed Media Reverse Paintings On Glass",
            "dates": {
                "installed": {
                    "date_string": "1999-01-01T00:00:00.000"
                }
            }
        },
        {
            "name": "Lone Star Gazebo",
            "coordinates": {
                "longitude": -97.753598,
                "latitude": 30.265813
            },
            "address": {
                "street_address": "700 W Cesar Chavez St",
                "city": "Austin",
                "region": "TX"
            },
            "artist": "Rodolfo  Ybarra",
            "material": "Galvanized Steel",
            "dates": {
                "installed": {
                    "date_string": "1995-01-01T00:00:00.000"
                }
            }
        },
        {
            "name": "Brazos Sound Project #13",
            "coordinates": {
                "longitude": -97.74298,
                "latitude": 30.264300000000002
            },
            "address": {
                "street_address": "Brazos south of 2nd Street, east side",
                "city": "Austin",
                "region": "TX"
            },
            "artist": "Sodalitas Art Group",
            "material": "Powder Coated Steel With Electronic Audio Components",
            "dates": {
                "installed": {
                    "date_string": "2016-01-01T00:00:00.000"
                }
            }
        },
        {
            "name": "Souls of the Trees",
            "coordinates": {
                "longitude": -97.773211,
                "latitude": 30.433782
            },
            "address": {
                "street_address": "8637 Spicewood Springs Rd",
                "city": "Austin",
                "region": "TX"
            },
            "artist": "Heather  Carter",
            "material": "Pine",
            "dates": {
                "installed": {
                    "date_string": "2007-01-01T00:00:00.000"
                }
            }
        },
        {
            "name": "Rosemary: Goddess of the Herb Garden",
            "coordinates": {
                "longitude": -97.7729,
                "latitude": 30.268930000000005
            },
            "address": {
                "street_address": "2220 Barton Springs Rd",
                "city": "Austin",
                "region": "TX"
            },
            "artist": "Mary  Albrecht",
            "material": "Ferro Concrete",
            "dates": {
                "installed": {
                    "date_string": "2000-01-01T00:00:00.000"
                }
            }
        },
        {
            "name": "For Jeep, With Love",
            "coordinates": {
                "longitude": -97.753415,
                "latitude": 30.260248000000004
            },
            "address": {
                "street_address": "900 Barton Springs Rd",
                "city": "Austin",
                "region": "TX"
            },
            "artist": "Archaic (Kincannon Studios)  ",
            "material": "Carved Limestone",
            "dates": {
                "installed": {
                    "date_string": "2001-01-01T00:00:00.000"
                }
            }
        },
        {
            "name": "Doctor Pangloss",
            "coordinates": {
                "longitude": -97.737668,
                "latitude": 30.213491
            },
            "address": {
                "street_address": "3810 Todd Ln",
                "city": "Austin",
                "region": "TX"
            },
            "artist": "Sandra  Fiedorek,  David  Heymann",
            "material": "20 Metal Trash Receptacles",
            "dates": {
                "installed": {
                    "date_string": "1999-01-01T00:00:00.000"
                }
            }
        },
        {
            "name": "Personal Effects III",
            "coordinates": {
                "longitude": -97.66992,
                "latitude": 30.211600000000004
            },
            "address": {
                "street_address": "2800 Spirit of Texas Dr",
                "city": "Austin",
                "region": "TX"
            },
            "artist": "Katherine  Brimberry",
            "material": "Monoprint With Solarplate Etching",
            "dates": {
                "installed": {
                    "date_string": "1994-01-01T00:00:00.000"
                }
            }
        },
        {
            "name": "Question Mark",
            "coordinates": {
                "longitude": -97.74568500000001,
                "latitude": 30.271145000000004
            },
            "address": {
                "street_address": "800 Guadalupe St",
                "city": "Austin",
                "region": "TX"
            },
            "artist": "Damian  Priour",
            "material": "Stained Glass",
            "dates": {
                "installed": {
                    "date_string": "1979-01-01T00:00:00.000"
                }
            }
        },
        {
            "name": "Gear Grove",
            "coordinates": {
                "longitude": -97.741969,
                "latitude": 30.270778000000004
            },
            "address": {
                "street_address": "818 Congress Avenue",
                "city": "Austin",
                "region": "TX"
            },
            "artist": "Ben  Harman",
            "material": "Stainless Steel, Mild Steel, Found Objects (repurposed Bike Gears)",
            "dates": {
                "installed": {
                    "date_string": "2013-01-01T00:00:00.000"
                }
            }
        },
        {
            "name": "We Regret to Inform You",
            "coordinates": {
                "longitude": -97.74731,
                "latitude": 30.264820000000004
            },
            "address": {
                "street_address": "301 W Second St",
                "city": "Austin",
                "region": "TX"
            },
            "artist": "Bethany  Cobb",
            "material": "Cotton Sateen, Netting, Cotton Thread, Dressmakers Dummy",
            "dates": {
                "installed": {
                    "date_string": "2010-01-01T00:00:00.000"
                }
            }
        },
        {
            "name": "Brazos Sound Project #10",
            "coordinates": {
                "longitude": -97.74221,
                "latitude": 30.265470000000004
            },
            "address": {
                "street_address": "Brazos south of 4th Street, east side",
                "city": "Austin",
                "region": "TX"
            },
            "artist": "Sodalitas Art Group",
            "material": "Powder Coated Steel With Electronic Audio Components",
            "dates": {
                "installed": {
                    "date_string": "2016-01-01T00:00:00.000"
                }
            }
        },
        {
            "name": "Untitled (Guerilla Carvings)",
            "coordinates": {
                "longitude": -97.739515,
                "latitude": 30.263910000000003
            },
            "address": {
                "street_address": "500 E Cesar Chavez St",
                "city": "Austin",
                "region": "TX"
            },
            "artist": "David  Santos",
            "material": "Limestone Carvings",
            "dates": {
                "installed": {
                    "date_string": "1983-01-01T00:00:00.000"
                }
            }
        },
        {
            "name": "Beach Dogs",
            "coordinates": {
                "longitude": -97.689018,
                "latitude": 30.253828000000002
            },
            "address": {
                "street_address": "7201 Levander Loop",
                "city": "Austin",
                "region": "TX"
            },
            "artist": "Matthew  Fuller",
            "material": "Selenium-toned Silver Gelatin Print",
            "dates": {
                "installed": {
                    "date_string": "1996-01-01T00:00:00.000"
                }
            }
        },
        {
            "name": "Station 26",
            "coordinates": {
                "longitude": -97.631641,
                "latitude": 30.293716
            },
            "address": {
                "street_address": "6702 Wentworth Dr",
                "city": "Austin",
                "region": "TX"
            },
            "artist": "Rachel Wolfson Smith",
            "material": "graphite on paper",
            "dates": {
                "installed": {
                    "date_string": "2017-01-01T00:00:00.000"
                }
            }
        },
        {
            "name": "Montopolis USA",
            "coordinates": {
                "longitude": -97.701347,
                "latitude": 30.229150000000004
            },
            "address": {
                "street_address": "1416 Montopolis Dr",
                "city": "Austin",
                "region": "TX"
            },
            "artist": "Fidencio  Duran",
            "material": "Acrylic Paint On Board",
            "dates": {
                "installed": {
                    "date_string": "2003-01-01T00:00:00.000"
                }
            }
        },
        {
            "name": "Pedestrian Geometries #19",
            "coordinates": {
                "longitude": -97.74924800000001,
                "latitude": 30.266722
            },
            "address": {
                "street_address": "301 Brazos St",
                "city": "Austin",
                "region": "TX"
            },
            "artist": "Erin  Curtis",
            "material": "Elgin-Butler Glazed Brick, Mortar, Grout",
            "dates": {
                "installed": {
                    "date_string": "2013-01-01T00:00:00.000"
                }
            }
        },
        {
            "name": "Cattails and Coneflower",
            "coordinates": {
                "longitude": -97.77281,
                "latitude": 30.268990000000002
            },
            "address": {
                "street_address": "2220 Barton Springs Rd",
                "city": "Austin",
                "region": "TX"
            },
            "artist": "Claudia Goldman",
            "material": "Weathered Steel",
            "dates": {
                "installed": {
                    "date_string": "2005-01-01T00:00:00.000"
                }
            }
        },
        {
            "name": "High Water Mark",
            "coordinates": {
                "longitude": -97.747932,
                "latitude": 30.264098000000004
            },
            "address": {
                "street_address": "Cesar Chavez at S First St",
                "city": "Austin",
                "region": "TX"
            },
            "artist": "Deborah  Mersky",
            "material": "Nineteen Stainless Steel Laser-cut Panels With Porcelain Enamel Insets",
            "dates": {
                "installed": {
                    "date_string": "2008-01-01T00:00:00.000"
                }
            }
        },
        {
            "name": "Opossum Temple and Voodoo Pew",
            "coordinates": {
                "longitude": -97.75954300000001,
                "latitude": 30.267760000000003
            },
            "address": {
                "street_address": "1125 W Cesar Chavez St",
                "city": "Austin",
                "region": "TX"
            },
            "artist": "Materials Coalition",
            "material": "Painted Steel And Cast Concrete",
            "dates": {
                "installed": {
                    "date_string": "1993-01-01T00:00:00.000"
                }
            }
        },
        {
            "name": "Las Acciones del Pasado Aseguran el Exito Hacia el Futuro",
            "coordinates": {
                "longitude": -97.720882,
                "latitude": 30.258079000000002
            },
            "address": {
                "street_address": "2100 E Third St",
                "city": "Austin",
                "region": "TX"
            },
            "artist": "Martin  Garcia",
            "material": "Acrylic Paint",
            "dates": {
                "installed": {
                    "date_string": "2004-01-01T00:00:00.000"
                }
            }
        },
        {
            "name": "Austin Music Flows",
            "coordinates": {
                "longitude": -97.66698000000001,
                "latitude": 30.202080000000002
            },
            "address": {
                "street_address": "3600 Presidential Blvd",
                "city": "Austin",
                "region": "TX"
            },
            "artist": "Debra  Prather Samples",
            "material": "Mixed Media Collage And Paint On Fiberglass",
            "dates": {
                "installed": {
                    "date_string": "2006-01-01T00:00:00.000"
                }
            }
        },
        {
            "name": "Aquifer",
            "coordinates": {
                "longitude": -97.741876,
                "latitude": 30.263735000000004
            },
            "address": {
                "street_address": "W Second St",
                "city": "Austin",
                "region": "TX"
            },
            "artist": "LaMa Ventures: Philip Lamb, Susan Magilow  ",
            "material": "Glass, Limestone, Aluminum",
            "dates": {
                "installed": {
                    "date_string": "2014-01-01T00:00:00.000"
                }
            }
        },
        {
            "name": "Crystalline #5",
            "coordinates": {
                "longitude": -97.745695,
                "latitude": 30.264017000000003
            },
            "address": {
                "street_address": "Colorado Street and Cesar Chavez Street",
                "city": "Austin",
                "region": "TX"
            },
            "artist": "Dharmesh  Patel,  Autumn J.  Ewalt",
            "material": "Stainless Steel",
            "dates": {
                "installed": {
                    "date_string": "2017-01-01T00:00:00.000"
                }
            }
        },
        {
            "name": "True Patriot: Barbara Jordan Memorial Statue",
            "coordinates": {
                "longitude": -97.66702000000001,
                "latitude": 30.202170000000002
            },
            "address": {
                "street_address": "3600 Presidential Blvd",
                "city": "Austin",
                "region": "TX"
            },
            "artist": "Bruce  Wolfe",
            "material": "Bronze",
            "dates": {
                "installed": {
                    "date_string": "2002-01-01T00:00:00.000"
                }
            }
        },
        {
            "name": "Iron Wave",
            "coordinates": {
                "longitude": -97.749802,
                "latitude": 30.277232
            },
            "address": {
                "street_address": "1213 Shoal Creek Blvd",
                "city": "Austin",
                "region": "TX"
            },
            "artist": "Chris  Levack",
            "material": "Steel Ramp With Rolled Steel Pipe, Sheet And Rods, Painted, Concrete Foundation.",
            "dates": {
                "installed": {
                    "date_string": "2011-01-01T00:00:00.000"
                }
            }
        },
        {
            "name": "Children at War",
            "coordinates": {
                "longitude": -97.721389,
                "latitude": 30.250621
            },
            "address": {
                "street_address": "2400 Holly St",
                "city": "Austin",
                "region": "TX"
            },
            "artist": "Rab Bakari",
            "material": "Acrylic Paint",
            "dates": {
                "installed": {
                    "date_string": "1991-01-01T00:00:00.000"
                }
            }
        },
        {
            "name": "Sanctuary of the Tribal Alligator",
            "coordinates": {
                "longitude": -97.74857,
                "latitude": 30.376447000000002
            },
            "address": {
                "street_address": "8601 Tallwood Dr",
                "city": "Austin",
                "region": "TX"
            },
            "artist": "T. Paul  Hernandez",
            "material": "Concrete",
            "dates": {
                "installed": {
                    "date_string": "1988-01-01T00:00:00.000"
                }
            }
        },
        {
            "name": "Sky Gates",
            "coordinates": {
                "longitude": -97.689283,
                "latitude": 30.325264
            },
            "address": {
                "street_address": "7200 Berkman Dr",
                "city": "Austin",
                "region": "TX"
            },
            "artist": "Peter  Mangan",
            "material": "Copper, Brass, Steel, Glass",
            "dates": {
                "installed": {
                    "date_string": "2000-01-01T00:00:00.000"
                }
            }
        },
        {
            "name": "Play",
            "coordinates": {
                "longitude": -97.66992,
                "latitude": 30.211600000000004
            },
            "address": {
                "street_address": "2800 Spirit of Texas Dr",
                "city": "Austin",
                "region": "TX"
            },
            "artist": "Arlene  Polite",
            "material": "Woodcut",
            "dates": {
                "installed": {
                    "date_string": "1995-01-01T00:00:00.000"
                }
            }
        },
        {
            "name": "The Island",
            "coordinates": {
                "longitude": -97.69110500000001,
                "latitude": 30.29876
            },
            "address": {
                "street_address": "5010 Old Manor Rd",
                "city": "Austin",
                "region": "TX"
            },
            "artist": "Roger  Colombik,  Jerolyn  Bahm-Colombik",
            "material": "Limestone, Stainless Steel, Bronze, Ceramic Tiles, Native Landscaping, Resin, Powder Coating.",
            "dates": {
                "installed": {
                    "date_string": "2003-01-01T00:00:00.000"
                }
            }
        },
        {
            "name": "Dance of the Cosmos",
            "coordinates": {
                "longitude": -97.708601,
                "latitude": 30.294774000000004
            },
            "address": {
                "street_address": "4200 Brookview Rd",
                "city": "Austin",
                "region": "TX"
            },
            "artist": "Jennifer  Chenoweth",
            "material": "Concrete, Steel, Actuator, Solar Electrical Components",
            "dates": {
                "installed": {
                    "date_string": "2015-01-01T00:00:00.000"
                }
            }
        },
        {
            "name": "Printing",
            "coordinates": {
                "longitude": -97.66992,
                "latitude": 30.211600000000004
            },
            "address": {
                "street_address": "2800 Spirit of Texas Dr",
                "city": "Austin",
                "region": "TX"
            },
            "artist": "Arlene  Polite",
            "material": "Woodcut",
            "dates": {
                "installed": {
                    "date_string": "1996-01-01T00:00:00.000"
                }
            }
        },
        {
            "name": "Tree on Barton Creek",
            "coordinates": {
                "longitude": -97.7424,
                "latitude": 30.26404
            },
            "address": {
                "street_address": "201 E 2nd St",
                "city": "Austin",
                "region": "TX"
            },
            "artist": "Jimmy  Jalapeeno",
            "material": "Oil On Canvas",
            "dates": {
                "installed": {
                    "date_string": "1993-01-01T00:00:00.000"
                }
            }
        },
        {
            "name": "Medicinal Plant Wall",
            "coordinates": {
                "longitude": -97.742788,
                "latitude": 30.186852000000002
            },
            "address": {
                "street_address": "5811 Nuckols Crossing Rd",
                "city": "Austin",
                "region": "TX"
            },
            "artist": "Philippe  Klinefelter",
            "material": "Granite",
            "dates": {
                "installed": {
                    "date_string": "2004-01-01T00:00:00.000"
                }
            }
        },
        {
            "name": "Untitled (Aquarium Scene)",
            "coordinates": {
                "longitude": -97.86243200000001,
                "latitude": 30.213705000000004
            },
            "address": {
                "street_address": "8011 Beckett Rd",
                "city": "Austin",
                "region": "TX"
            },
            "artist": "Dale  Whistler",
            "material": "Acrylic, Painted Tiles, Steel",
            "dates": {
                "installed": {
                    "date_string": "1997-01-01T00:00:00.000"
                }
            }
        },
        {
            "name": "Wall of Hands",
            "coordinates": {
                "longitude": -97.751525,
                "latitude": 30.211988
            },
            "address": {
                "street_address": "4411 Meinardus Dr",
                "city": "Austin",
                "region": "TX"
            },
            "artist": "Tre  Arenz",
            "material": "Handmade Ceramic Tiles",
            "dates": {
                "installed": {
                    "date_string": "1994-01-01T00:00:00.000"
                }
            }
        },
        {
            "name": "Blue Gate",
            "coordinates": {
                "longitude": -97.697185,
                "latitude": 30.302685
            },
            "address": {
                "street_address": "1800 E 51st St",
                "city": "Austin",
                "region": "TX"
            },
            "artist": "Casey D. Cooper",
            "material": "Painted Stainless Steel",
            "dates": {
                "installed": {
                    "date_string": "2014-01-01T00:00:00.000"
                }
            }
        },
        {
            "name": "Odessa",
            "coordinates": {
                "longitude": -97.689018,
                "latitude": 30.253828000000002
            },
            "address": {
                "street_address": "7201 Levander Loop",
                "city": "Austin",
                "region": "TX"
            },
            "artist": "Shelley  Wood",
            "material": "Selenium-toned Silver Gelatin Print",
            "dates": {
                "installed": {
                    "date_string": "2001-01-01T00:00:00.000"
                }
            }
        },
        {
            "name": "Swallow Suite",
            "coordinates": {
                "longitude": -97.66992,
                "latitude": 30.211600000000004
            },
            "address": {
                "street_address": "2800 Spirit of Texas Dr",
                "city": "Austin",
                "region": "TX"
            },
            "artist": "Margie  Crisp",
            "material": "Linocut",
            "dates": {
                "installed": {
                    "date_string": "1996-01-01T00:00:00.000"
                }
            }
        },
        {
            "name": "Lyons Road Pastoral Scene Mural",
            "coordinates": {
                "longitude": -97.702233,
                "latitude": 30.261903000000004
            },
            "address": {
                "street_address": "2828 Lyons Rd",
                "city": "Austin",
                "region": "TX"
            },
            "artist": "Angel  Quesada",
            "material": "Masonry, Latex Based Enamel Paint",
            "dates": {
                "installed": {
                    "date_string": "2010-01-01T00:00:00.000"
                }
            }
        },
        {
            "name": "Big Snake",
            "coordinates": {
                "longitude": -97.774026,
                "latitude": 30.271908000000003
            },
            "address": {
                "street_address": "301 Nature Center Dr",
                "city": "Austin",
                "region": "TX"
            },
            "artist": "Elena  Eidelberg,  Kathleen  Ash",
            "material": "Handmade Shaped Ceramic & Sandblasted Glass",
            "dates": {
                "installed": {
                    "date_string": "1997-01-01T00:00:00.000"
                }
            }
        },
        {
            "name": "Brazos Sound Project #9",
            "coordinates": {
                "longitude": -97.742041,
                "latitude": 30.266240000000003
            },
            "address": {
                "street_address": "Brazos centered between 4th and 5th Streets, east side",
                "city": "Austin",
                "region": "TX"
            },
            "artist": "Sodalitas Art Group",
            "material": "Powder Coated Steel With Electronic Audio Components",
            "dates": {
                "installed": {
                    "date_string": "2016-01-01T00:00:00.000"
                }
            }
        },
        {
            "name": "Pedestrian Geometries #21",
            "coordinates": {
                "longitude": -97.746556,
                "latitude": 30.266099000000004
            },
            "address": {
                "street_address": "301 Brazos St",
                "city": "Austin",
                "region": "TX"
            },
            "artist": "Erin  Curtis",
            "material": "Elgin-Butler Glazed Brick, Mortar, Grout",
            "dates": {
                "installed": {
                    "date_string": "2013-01-01T00:00:00.000"
                }
            }
        },
        {
            "name": "Pedestrian Geometries #17",
            "coordinates": {
                "longitude": -97.744613,
                "latitude": 30.265418000000004
            },
            "address": {
                "street_address": "301 Brazos St",
                "city": "Austin",
                "region": "TX"
            },
            "artist": "Erin  Curtis",
            "material": "Elgin-Butler Glazed Brick, Mortar, Grout",
            "dates": {
                "installed": {
                    "date_string": "2013-01-01T00:00:00.000"
                }
            }
        },
        {
            "name": "Array #9",
            "coordinates": {
                "longitude": -97.751239,
                "latitude": 30.266346000000002
            },
            "address": {
                "street_address": "W 2nd Street Extension",
                "city": "Austin",
                "region": "TX"
            },
            "artist": "Judd Graham",
            "material": "Mild Steel",
            "dates": {
                "installed": {
                    "date_string": "2017-01-01T00:00:00.000"
                }
            }
        },
        {
            "name": "The Life of Waller Creek and Lady Bird Lake",
            "coordinates": {
                "longitude": -97.741872,
                "latitude": 30.260650000000002
            },
            "address": {
                "street_address": "74 Trinity St",
                "city": "Austin",
                "region": "TX"
            },
            "artist": "Jill  Bedgood",
            "material": "Back-painted And Etched Glass Tiles, Wooden Tiles",
            "dates": {
                "installed": {
                    "date_string": "2012-01-01T00:00:00.000"
                }
            }
        },
        {
            "name": "Untitled {Utility Box Cover 1)",
            "coordinates": {
                "longitude": -97.746876,
                "latitude": 30.263903000000003
            },
            "address": {
                "street_address": "Cesar Chavez at S First St",
                "city": "Austin",
                "region": "TX"
            },
            "artist": "Deborah  Mersky",
            "material": "Cut Aluminum Panels",
            "dates": {
                "installed": {
                    "date_string": "2009-01-01T00:00:00.000"
                }
            }
        },
        {
            "name": "Por Vida",
            "coordinates": {
                "longitude": -97.66698000000001,
                "latitude": 30.202080000000002
            },
            "address": {
                "street_address": "3600 Presidential Blvd",
                "city": "Austin",
                "region": "TX"
            },
            "artist": "Kathy  Marcus",
            "material": "Mixed Media On Fiberglass",
            "dates": {
                "installed": {
                    "date_string": "2009-01-01T00:00:00.000"
                }
            }
        },
        {
            "name": "Your Essential Magnificence",
            "coordinates": {
                "longitude": -97.75273800000001,
                "latitude": 30.241872000000004
            },
            "address": {
                "street_address": "2130 1/2 S Congress Ave.",
                "city": "Austin",
                "region": "TX"
            },
            "artist": "James  Talbot",
            "material": "Ferro Cement, Ceramic Tile, Glass, Concrete, Found Objects",
            "dates": {
                "installed": {
                    "date_string": "2011-01-01T00:00:00.000"
                }
            }
        },
        {
            "name": "Go Forth",
            "coordinates": {
                "longitude": -97.724044,
                "latitude": 30.269565000000004
            },
            "address": {
                "street_address": "1165 Angelina St",
                "city": "Austin",
                "region": "TX"
            },
            "artist": "Eddie  Dixon",
            "material": "Cast Bronze",
            "dates": {
                "installed": {
                    "date_string": "2005-01-01T00:00:00.000"
                }
            }
        },
        {
            "name": "Sedona Lake",
            "coordinates": {
                "longitude": -97.74686,
                "latitude": 30.264900000000004
            },
            "address": {
                "street_address": "301 W Second St",
                "city": "Austin",
                "region": "TX"
            },
            "artist": "Lawrence  Jolly",
            "material": "Oil On Canvas",
            "dates": {
                "installed": {
                    "date_string": "2014-01-01T00:00:00.000"
                }
            }
        },
        {
            "name": "Shock Egg and Checker Burst",
            "coordinates": {
                "longitude": -97.666847,
                "latitude": 30.211885000000002
            },
            "address": {
                "street_address": "3600 Presidential Blvd",
                "city": "Austin",
                "region": "TX"
            },
            "artist": "Eric  Eley",
            "material": "Stainless Steel, Silicon Bronze",
            "dates": {
                "installed": {
                    "date_string": "2015-01-01T00:00:00.000"
                }
            }
        },
        {
            "name": "A Dream",
            "coordinates": {
                "longitude": -97.739403,
                "latitude": 30.187861
            },
            "address": {
                "street_address": "5801 Ainez Dr",
                "city": "Austin",
                "region": "TX"
            },
            "artist": "Courtney  Enriquez",
            "material": "Acrylic Paint",
            "dates": {
                "installed": {
                    "date_string": "1998-01-01T00:00:00.000"
                }
            }
        },
        {
            "name": "Untitled",
            "coordinates": {
                "longitude": -97.734562,
                "latitude": 30.26976
            },
            "address": {
                "street_address": "625 E Tenth St",
                "city": "Austin",
                "region": "TX"
            },
            "artist": "Malou  Flato",
            "material": "Painted Ceramic Tile Mural",
            "dates": {
                "installed": {
                    "date_string": "1993-01-01T00:00:00.000"
                }
            }
        },
        {
            "name": "Kids in the Mirror, Orphanage at Svir Stroi, Svir Stroi, Russia",
            "coordinates": {
                "longitude": -97.689018,
                "latitude": 30.253828000000002
            },
            "address": {
                "street_address": "7201 Levander Loop",
                "city": "Austin",
                "region": "TX"
            },
            "artist": "Misty  Keasler",
            "material": "C-print On Fujicolor Crystal Archive Paper",
            "dates": {
                "installed": {
                    "date_string": "2002-01-01T00:00:00.000"
                }
            }
        },
        {
            "name": "Lamina Groove",
            "coordinates": {
                "longitude": -97.772569,
                "latitude": 30.277331000000004
            },
            "address": {
                "street_address": "2307 Foster Ave",
                "city": "Austin",
                "region": "TX"
            },
            "artist": "Virginia  Fleck",
            "material": "Archival IRIS Giclée Print On Somerset Watercolor Paper",
            "dates": {
                "installed": {
                    "date_string": "2002-01-01T00:00:00.000"
                }
            }
        },
        {
            "name": "The Community Core Sample Project & The Threshold Project",
            "coordinates": {
                "longitude": -97.693701,
                "latitude": 30.332823
            },
            "address": {
                "street_address": "7500 Blessing Ave",
                "city": "Austin",
                "region": "TX"
            },
            "artist": "Beverly  Penn,  Steve  Wiman",
            "material": "Mixed Media, Found Objects, Photographs",
            "dates": {
                "installed": {
                    "date_string": "2002-01-01T00:00:00.000"
                }
            }
        },
        {
            "name": "Currency",
            "coordinates": {
                "longitude": -97.741873,
                "latitude": 30.263715
            },
            "address": {
                "street_address": "W Second St",
                "city": "Austin",
                "region": "TX"
            },
            "artist": "Jill  Bedgood",
            "material": "Bronze",
            "dates": {
                "installed": {
                    "date_string": "2014-01-01T00:00:00.000"
                }
            }
        },
        {
            "name": "Pedestrian Geometries #26",
            "coordinates": {
                "longitude": -97.743357,
                "latitude": 30.265217000000003
            },
            "address": {
                "street_address": "301 Brazos St",
                "city": "Austin",
                "region": "TX"
            },
            "artist": "Erin  Curtis",
            "material": "Elgin-Butler Glazed Brick, Mortar, Grout",
            "dates": {
                "installed": {
                    "date_string": "2013-01-01T00:00:00.000"
                }
            }
        },
        {
            "name": "Every Place A History",
            "coordinates": {
                "longitude": -97.69050100000001,
                "latitude": 30.251847
            },
            "address": {
                "street_address": "7201 Levander Loop",
                "city": "Austin",
                "region": "TX"
            },
            "artist": "Brad J. Goldberg",
            "material": "Red Granite, Texas Limestone",
            "dates": {
                "installed": {
                    "date_string": "2011-01-01T00:00:00.000"
                }
            }
        },
        {
            "name": "Trail of Tejano Legends: !Estamos en Tejas!",
            "coordinates": {
                "longitude": -97.71421600000001,
                "latitude": 30.251227000000004
            },
            "address": {
                "street_address": "2711 Canterbury St",
                "city": "Austin",
                "region": "TX"
            },
            "artist": "Connie  Arismendi",
            "material": "Aluminum",
            "dates": {
                "installed": {
                    "date_string": "2008-01-01T00:00:00.000"
                }
            }
        },
        {
            "name": "Lady Bird Johnson Wildflower Spring #1",
            "coordinates": {
                "longitude": -97.689018,
                "latitude": 30.253828000000002
            },
            "address": {
                "street_address": "7201 Levander Loop",
                "city": "Austin",
                "region": "TX"
            },
            "artist": "Victoria  Smith",
            "material": "Archival Iris Giclee Photograph On Somerset Watercolor Paper",
            "dates": {
                "installed": {
                    "date_string": "1999-01-01T00:00:00.000"
                }
            }
        },
        {
            "name": "Brazos Sound Project #5",
            "coordinates": {
                "longitude": -97.74144,
                "latitude": 30.266468000000003
            },
            "address": {
                "street_address": "Brazos south of 5th Street (at the Onion), west side",
                "city": "Austin",
                "region": "TX"
            },
            "artist": "Sodalitas Art Group",
            "material": "Powder Coated Steel With Electronic Audio Components",
            "dates": {
                "installed": {
                    "date_string": "2016-01-01T00:00:00.000"
                }
            }
        },
        {
            "name": "Array #5",
            "coordinates": {
                "longitude": -97.75166800000001,
                "latitude": 30.266288000000003
            },
            "address": {
                "street_address": "W 2nd Street Extension",
                "city": "Austin",
                "region": "TX"
            },
            "artist": "Judd Graham",
            "material": "Mild Steel",
            "dates": {
                "installed": {
                    "date_string": "2017-01-01T00:00:00.000"
                }
            }
        },
        {
            "name": "Nobody Writes Poetry About the Trinity",
            "coordinates": {
                "longitude": -97.740781,
                "latitude": 30.263424000000004
            },
            "address": {
                "street_address": "W Second St",
                "city": "Austin",
                "region": "TX"
            },
            "artist": "Mark  Schatz",
            "material": "Cement",
            "dates": {
                "installed": {
                    "date_string": "2014-01-01T00:00:00.000"
                }
            }
        },
        {
            "name": "Pedestrian Geometries #4",
            "coordinates": {
                "longitude": -97.742125,
                "latitude": 30.264884000000002
            },
            "address": {
                "street_address": "301 Brazos St",
                "city": "Austin",
                "region": "TX"
            },
            "artist": "Erin  Curtis",
            "material": "Elgin-Butler Glazed Brick, Mortar, Grout",
            "dates": {
                "installed": {
                    "date_string": "2013-01-01T00:00:00.000"
                }
            }
        },
        {
            "name": "Crullers (Little Mama - comprised of Big Mama Baby, Little Mama and Tall Solo)",
            "coordinates": {
                "longitude": -97.751605,
                "latitude": 30.266450000000003
            },
            "address": {
                "street_address": "708-1/2 W 2nd St.",
                "city": "Austin",
                "region": "TX"
            },
            "artist": "Sharon  Engelstein",
            "material": "Pigmented Glass Fiber Reinforced Concrete Over Structural Foam And Steel Armature",
            "dates": {
                "installed": {
                    "date_string": "2016-01-01T00:00:00.000"
                }
            }
        },
        {
            "name": "Connected",
            "coordinates": {
                "longitude": -97.689018,
                "latitude": 30.253828000000002
            },
            "address": {
                "street_address": "7201 Levander Loop",
                "city": "Austin",
                "region": "TX"
            },
            "artist": "Nan  Standish Blake",
            "material": "Giclée Print On Fujicolor Crystal Archive Paper",
            "dates": {
                "installed": {
                    "date_string": "2003-01-01T00:00:00.000"
                }
            }
        },
        {
            "name": "Pedestrian Geometries #1",
            "coordinates": {
                "longitude": -97.743148,
                "latitude": 30.264994
            },
            "address": {
                "street_address": "301 Brazos St",
                "city": "Austin",
                "region": "TX"
            },
            "artist": "Erin  Curtis",
            "material": "Elgin-Butler Glazed Brick, Mortar, Grout",
            "dates": {
                "installed": {
                    "date_string": "2013-01-01T00:00:00.000"
                }
            }
        },
        {
            "name": "The Source",
            "coordinates": {
                "longitude": -97.734988,
                "latitude": 30.269775000000003
            },
            "address": {
                "street_address": "625 E Tenth St",
                "city": "Austin",
                "region": "TX"
            },
            "artist": "John  Christensen",
            "material": "Bronze, Granite, Concrete",
            "dates": {
                "installed": {
                    "date_string": "1994-01-01T00:00:00.000"
                }
            }
        },
        {
            "name": "Eagle ll",
            "coordinates": {
                "longitude": -97.74601700000001,
                "latitude": 30.271302000000002
            },
            "address": {
                "street_address": "800 Guadalupe St",
                "city": "Austin",
                "region": "TX"
            },
            "artist": "David  Deming",
            "material": "Weathered Steel",
            "dates": {
                "installed": {
                    "date_string": "1976-01-01T00:00:00.000"
                }
            }
        },
        {
            "name": "Green Austin Series",
            "coordinates": {
                "longitude": -97.66681000000001,
                "latitude": 30.202270000000002
            },
            "address": {
                "street_address": "3600 Presidential Blvd",
                "city": "Austin",
                "region": "TX"
            },
            "artist": "Jimmy  Jalapeeno",
            "material": "7 Oil Paintings On Canvas",
            "dates": {
                "installed": {
                    "date_string": "1990-01-01T00:00:00.000"
                }
            }
        },
        {
            "name": "Station 5",
            "coordinates": {
                "longitude": -97.68418,
                "latitude": 30.278546
            },
            "address": {
                "street_address": "1201 Webberville Rd",
                "city": "Austin",
                "region": "TX"
            },
            "artist": "Rachel Wolfson Smith",
            "material": "graphite on paper",
            "dates": {
                "installed": {
                    "date_string": "2017-01-01T00:00:00.000"
                }
            }
        },
        {
            "name": "Reflections",
            "coordinates": {
                "longitude": -97.73087600000001,
                "latitude": 30.270069000000003
            },
            "address": {
                "street_address": "912 E 11th St",
                "city": "Austin",
                "region": "TX"
            },
            "artist": "Reginald  Adams",
            "material": "Mosaic Mural Made With Glass And Ceramic Tiles",
            "dates": {
                "installed": {
                    "date_string": "2012-01-01T00:00:00.000"
                }
            }
        },
        {
            "name": "Willie Nelson",
            "coordinates": {
                "longitude": -97.74729500000001,
                "latitude": 30.26536
            },
            "address": {
                "street_address": "310 W Second St",
                "city": "Austin",
                "region": "TX"
            },
            "artist": "Clete  Shields",
            "material": "Bronze",
            "dates": {
                "installed": {
                    "date_string": "2012-01-01T00:00:00.000"
                }
            }
        },
        {
            "name": "Jolly-Ville Plateau Salamander",
            "coordinates": {
                "longitude": -97.939177,
                "latitude": 30.330669
            },
            "address": {
                "street_address": "3621 Ranch Road 620 South",
                "city": "Austin",
                "region": "TX"
            },
            "artist": "Jules  Jones",
            "material": "Acrylic And Mixed Media On Paper.",
            "dates": {
                "installed": {
                    "date_string": "2008-01-01T00:00:00.000"
                }
            }
        },
        {
            "name": "Dawn to Dusk",
            "coordinates": {
                "longitude": -97.70890200000001,
                "latitude": 30.259081000000002
            },
            "address": {
                "street_address": "651 N Pleasant Valley Rd",
                "city": "Austin",
                "region": "TX"
            },
            "artist": "Rene  Anguiano",
            "material": "14 Acrylic Paintings",
            "dates": {
                "installed": {
                    "date_string": "1998-01-01T00:00:00.000"
                }
            }
        },
        {
            "name": "Urban / Canyon",
            "coordinates": {
                "longitude": -97.745592,
                "latitude": 30.264774000000003
            },
            "address": {
                "street_address": "W Second St",
                "city": "Austin",
                "region": "TX"
            },
            "artist": "Sun  McColgin",
            "material": "Stainless Steel, Stained Concrete, Glass",
            "dates": {
                "installed": {
                    "date_string": "2011-01-01T00:00:00.000"
                }
            }
        },
        {
            "name": "Procession for Our Lady of Guadalupe",
            "coordinates": {
                "longitude": -97.718018,
                "latitude": 30.261583
            },
            "address": {
                "street_address": "E 7th and Robert Martinez",
                "city": "Austin",
                "region": "TX"
            },
            "artist": "Maggie  Desanto",
            "material": "Glazed Ceramic Tile, Cement Board",
            "dates": {
                "installed": {
                    "date_string": "2011-01-01T00:00:00.000"
                }
            }
        },
        {
            "name": "Reading Between the Lions",
            "coordinates": {
                "longitude": -97.69021900000001,
                "latitude": 30.311649
            },
            "address": {
                "street_address": "5833 Westminster Dr",
                "city": "Austin",
                "region": "TX"
            },
            "artist": "Paul  Bond",
            "material": "Bronze",
            "dates": {
                "installed": {
                    "date_string": "2000-01-01T00:00:00.000"
                }
            }
        },
        {
            "name": "Rowing Shell",
            "coordinates": {
                "longitude": -97.741732,
                "latitude": 30.260647000000002
            },
            "address": {
                "street_address": "74 Trinity St",
                "city": "Austin",
                "region": "TX"
            },
            "artist": "Jill  Bedgood",
            "material": "Back-painted Glass, Aluminum Frame",
            "dates": {
                "installed": {
                    "date_string": "2012-01-01T00:00:00.000"
                }
            }
        },
        {
            "name": "For La Raza",
            "coordinates": {
                "longitude": -97.72138,
                "latitude": 30.249525000000002
            },
            "address": {
                "street_address": "2400 Holly St",
                "city": "Austin",
                "region": "TX"
            },
            "artist": "Robert  Herrera",
            "material": "Acrylic Paint",
            "dates": {
                "installed": {
                    "date_string": "1992-01-01T00:00:00.000"
                }
            }
        }
    ],
    "errors": [
        {
            "type": "missing-fields",
            "missing_fields": [
                "longitude",
                "latitude"
            ],
            "data_entry": {
                "artist": "Bill  Wiman",
                "artwork_title": "Transitions",
                "material": "Oil On Canvas",
                "artwork_date": "1990-01-01T00:00:00.000",
                "artwork_location": "Medic 3 Quarters",
                "location_street_address": "600 River St",
                "location_city": "Austin",
                "location_state": "TX",
                "location_zip_code": "78701"
            }
        },
        {
            "type": "missing-fields",
            "missing_fields": [
                "longitude",
                "latitude"
            ],
            "data_entry": {
                "artist": "Leah Davis, Robert Gay, Jack Sanders  ",
                "artwork_title": "Lance Armstrong Bikeway ",
                "material": "Powder Coated Steel, Solar Panel, Solar Controller, Concrete",
                "artwork_date": "2009-01-01T00:00:00.000",
                "artwork_location": "Lance Armstrong Bikeway",
                "location_street_address": "From Veterans Dr/MoPac to 5th/Shady Lane",
                "location_city": "Austin",
                "location_state": "TX",
                "web_page": {
                    "url": "http://www.publicartarchive.org/work/lab"
                }
            }
        },
        {
            "type": "missing-fields",
            "missing_fields": [
                "longitude",
                "latitude"
            ],
            "data_entry": {
                "artist": "Phillip  Wade",
                "artwork_title": "Schnauzer at the Door",
                "material": "Oil On Canvas",
                "artwork_date": "1992-01-01T00:00:00.000",
                "artwork_location": "Texas Cancer Center at Brackenridge Hospital",
                "location_city": "Austin",
                "location_state": "TX",
                "location_zip_code": "78701"
            }
        },
        {
            "type": "missing-fields",
            "missing_fields": [
                "longitude",
                "latitude"
            ],
            "data_entry": {
                "artist": "Damian  Priour",
                "artwork_title": "Untitled",
                "material": "Lead Stained Glass Window",
                "artwork_date": "1980-01-01T00:00:00.000",
                "artwork_location": "Brackenridge Hospital"
            }
        },
        {
            "type": "missing-fields",
            "missing_fields": [
                "longitude",
                "latitude"
            ],
            "data_entry": {
                "artist": "Martha  Mcashan Guerin",
                "artwork_title": "Sandcastles",
                "material": "Bronze",
                "artwork_date": "1989-01-01T00:00:00.000",
                "artwork_location": "Brackenridge Children's Hospital",
                "location_city": "Austin",
                "location_state": "TX",
                "location_zip_code": "78701"
            }
        }
    ]
}